address,adm-fees,garage-places,price,rooms,square-foot,neighborhood,city,latitude,longitude
"Avenida Raja Gabaglia, 1583 ",470.0,1,330000.0,1,40, Luxemburgo, Belo Horizonte ,-19.9364152,-43.9533964
"Rua Espírito Santo, 1171 ",,1,480000.0,2,45-65, Centro, Belo Horizonte ,-18.8647762,-41.1217768
"Rua dos Expedicionários, 1082 ",,5,1190000.0,4,411, Santa Amélia, Belo Horizonte ,-20.2252407,-44.3977797
"Rua Marechal Hermes, 81 ",750.0,4,1590000.0,4,158, Gutierrez, Belo Horizonte ,-19.9371552,-43.9586943
"Rua Juruna, 110 ",,6,550000.0,3,278, Pindorama, Belo Horizonte ,-19.9129822,-44.0199442
"Rua Maria Pereira de Araújo, 15 ",500.0,1,450000.0,3,87, Castelo, Belo Horizonte ,-19.8861475,-44.0042361
"Rua Espírito Santo, 1580 ",,2,861748.0,2,60-71, Centro, Belo Horizonte ,-18.8647762,-41.1217768
"Rua Matipó, 455 ",750.0,2,549900.0,4,153, Santo Antônio, Belo Horizonte ,-19.9473515,-43.9434703
"Rua Pitangui, 000 ",,2,890000.0,3,200, Sagrada Família, Belo Horizonte ,-19.9023386,-43.9420716
"Avenida dos Bandeirantes, 76 ",2400.0,3,2550000.0,4,570, Sion, Belo Horizonte ,-19.9572301,-43.9319731
"Avenida Bias Fortes, 1603 ",480.0,1,310000.0,2,74, Lourdes, Belo Horizonte ,-19.9320955,-43.9393472
"Rua Maestro Delê Andrade, 231 ",350.0,1,311000.0,3,72, Santa Efigênia, Belo Horizonte ,-19.9242017,-43.9131071
"Rua Bom Despacho, 356 ",,3,975000.0,5,250, Santa Tereza, Belo Horizonte ,-19.8738542,-44.0049198
"Rua Curitiba, 1677 ",,2-3,826000.0,2,62-65, Lourdes, Belo Horizonte ,-19.9122312,-43.9396634
"Rua Alvarenga Peixoto, 711 ",1092.0,3,1027000.0,3,102, Lourdes, Belo Horizonte ,-19.929576,-43.9494157
Rua Carlos Schettino ,200.0,1,180000.0,2,52, Nova Gameleira, Belo Horizonte ,-19.9427423,-43.9951065
"Rua Barão de Cocais, 397 ",380000.0,2,750000.0,4,160, Sagrada Família, Belo Horizonte ,-19.9093193,-43.9220712
"Rua João Calvino, 150 ",,3,800000.0,3,215, São João Batista, Belo Horizonte ,-19.8179098,-43.9705903
Rua Araraquara ,504.0,2,560000.0,3,82, Nova Suíssa, Belo Horizonte ,-19.9343061,-43.9775176
"Rua Augusto José de Araújo, 217 ",,1,385000.0,2,90, São Gabriel, Belo Horizonte ,-19.8554481,-43.9186394
"Rua Cecília Fonseca Coutinho, 480 ",250.0,1,280000.0,2,54, Castelo, Belo Horizonte ,-19.8888222,-43.995234
"Rua João Antônio Cardoso, 128 ",366.0,--,495000.0,4,127, Ouro Preto, Belo Horizonte ,-19.8753366,-43.9827445
"Rua Contria, 784 ",290.0,1,750000.0,2,160, Alto Barroca, Belo Horizonte ,-19.9288646,-43.9703277
"Rua Jacson Passos, 15 ",,3,650000.0,3,200, Goiânia, Belo Horizonte ,-19.8587547,-43.9011513
"Rua Tenente Marino Freire, 135 ",110.0,2,380000.0,3,140, Maria Helena, Belo Horizonte ,-19.8018933,-43.993773
"Rua Sebastião Fabiano Dias, 105 ",2270.0,3,1950000.0,4,178, Belvedere, Belo Horizonte ,-19.9763098,-43.9441586
"Avenida José Cândido da Silveira, 549 ",370.0,2,400000.0,3,90, Cidade Nova, Belo Horizonte ,-19.8772474,-43.9104561
"Rua Grenat, 120 ",,3,390000.0,4,254, Vitória, Belo Horizonte ,-19.8618303,-43.8875317
"Rua São Paulo, 1801 ",900.0,3,2025000.0,3,123, Lourdes, Belo Horizonte ,-19.914782,-43.9388011
"Rua Antônio de Albuquerque, 230 ",1000.0,2,890000.0,2,72, Savassi, Belo Horizonte ,-19.936584,-43.9421163
"Rua da Bahia, 485 ",500.0,--,380000.0,3,96, Centro, Belo Horizonte ,-19.9151776,-43.9347647
"Rua Mariano Procópio, 376 ",,2,358000.0,2,55, João Pinheiro, Belo Horizonte ,-19.9305746,-43.9939538
"Rua São Sebastião do Paraíso, 351 ",460.0,3,545000.0,4,115, Itapoã, Belo Horizonte ,-19.8351911,-43.9633143
"Rua Doutor Juvenal dos Santos, 324 ",900.0,2,850000.0,3,120, Luxemburgo, Belo Horizonte ,-19.9508257,-43.9585445
"Rua Santa Rosa, 50 ",,1,300000.0,3,80, São Tomaz, Belo Horizonte ,-19.7876321,-43.977021
"Rua Alvarenga Peixoto, 594 ",,1,695416.0,1,39-48, Lourdes, Belo Horizonte ,-19.929576,-43.9494157
"Rua Mirante, 203 ",,--,350000.0,--,360, Boa Vista, Belo Horizonte ,-19.8910998,-43.890295
"Rua Deputado Bernardino de Sena Figueiredo, 1177 ",,3,620000.0,3,90, Cidade Nova, Belo Horizonte ,-19.8840778,-43.9282818
"Avenida Cristiano Machado, 1420 ",500.0,1,290000.0,3,92, Sagrada Família, Belo Horizonte ,-19.8475195,-43.9324755
"Avenida Amazonas, 61 ",380.0,--,320000.0,2,65, Centro, Belo Horizonte ,-19.9379439,-43.9991336
"Rua Rubi, 402 ",550.0,1,600000.0,3,110, Prado, Belo Horizonte ,-19.7884921,-43.9717152
"Rua Alvarenga Peixoto, 425 ",,2,969619.0,2-3,66-118, Lourdes, Belo Horizonte ,-19.929576,-43.9494157
"Rua Mariano Procópio, 376 ",,2,398000.0,2,130, João Pinheiro, Belo Horizonte ,-19.9305746,-43.9939538
Rua Flor,300.0,1,495000.0,3,68,,Belo Horizonte,-19.8339596,-43.8688074
"Rua Sebastião Fabiano Dias, 233 ",1350.0,2,930000.0,3,100, Belvedere, Belo Horizonte ,-19.9763098,-43.9441586
"Rua Ramalho Ortigão, 649 ",,3,740000.0,3,200, Santa Branca, Belo Horizonte ,-19.8327541,-43.9664751
Rua Lavras ,,4,4200000.0,4,391, São Pedro, Belo Horizonte ,-19.9481626,-43.9382658
"Rua dos Timbiras, 3198 ",,2-3,,2-3,66-145, Barro Preto, Belo Horizonte ,-19.9302789,-43.9251047
Rua Tabelião Ferreira de Carvalho ,650.0,2,649900.0,3,93, Cidade Nova, Belo Horizonte ,-19.8869404,-43.9290733
"Rua José Hemetério Andrade, 558 ",400.0,1,319000.0,2,75, Buritis, Belo Horizonte ,-19.9786425,-43.9631117
Rua Ubá ,700.0,2,670000.0,3,106, Colégio Batista, Belo Horizonte ,-19.9102519,-43.9356369
"Rua Caraça, 507 ",1350.0,2,1150000.0,4,145, Serra, Belo Horizonte ,-19.9430505,-43.9141262
"Rua Eli Seabra Filho, 215 ",400.0,2,690000.0,3,215, Buritis, Belo Horizonte ,-19.9756218,-43.9749864
"Rua Juiz Costa Val, 118 ",,1,535000.0,2,66, Santa Efigênia, Belo Horizonte ,-19.9271004,-43.9192351
"Rua Rio Grande do Sul, 2414 ",,1-2,670500.0,1-2,43, Santo Agostinho, Belo Horizonte ,-19.9227162,-43.946463
"Rua Pouso Alegre, 2615 ",494.0,1,315000.0,2,50, Horto, Belo Horizonte ,-19.9121319,-43.9296778
"Rua Almirante Alexandrino, 761 ",1450.0,2,1030000.0,4,148, Gutierrez, Belo Horizonte ,-19.931528,-43.9558202
"Rua Santa Rita Durão, 152 ",600.0,2,1320000.0,3,93, Funcionários, Belo Horizonte ,-19.9344756,-43.9346452
"Rua José Cláudio Sanches, 120 ",180.0,1,230000.0,3,70, Califórnia, Belo Horizonte ,-19.9315944,-44.0187098
"Rua Dois Mil Duzentos e Vinte e Um, 80 ",,1,130000.0,3,56, Granja De Freitas, Belo Horizonte ,-19.9119572,-43.8836351
"Rua Itaparica, 221 ",300.0,2,854000.0,4,103, Serra, Belo Horizonte ,-19.9358076,-43.9195007
"Rua Bernardo Guimarães, 594 ",,2-3,1263492.0,3-4,87-134, Savassi, Belo Horizonte ,-19.927333,-43.9477878
"Rua Coral, 69 ",1100.0,2,625000.0,3,92, São Pedro, Belo Horizonte ,-19.9485933,-43.9375473
"Rua Anhangüera, 95 ",,2,388000.0,3,62, Santa Tereza, Belo Horizonte ,-19.9138422,-43.9206403
"Rua José Quirino Rosa, 395 ",1000.0,4,3000000.0,4,600, Braúnas, Belo Horizonte ,-19.8489837,-44.0107497
"Rua Alberto Bressane, 247 ",,3,1350000.0,4,375, São Lucas, Belo Horizonte ,-19.9300689,-43.9139527
Rua Daniel de Carvalho ,270.0,2,530000.0,4,142, Gutierrez, Belo Horizonte ,-19.9399033,-43.9587235
"Rua Nunes Vieira, 292 ",600.0,1,598000.0,3,120, Santo Antônio, Belo Horizonte ,-19.9424153,-43.945949
Rua Flor,500.0,2,530000.0,3,81,,Belo Horizonte,-19.8339596,-43.8688074
"Rua Alvarenga Peixoto, 1250 ",,2-3,,2-3,76-208, Santo Agostinho, Belo Horizonte ,-19.929576,-43.9494157
Rua Padre Rossini Cândido ,400.0,1,495000.0,3,105, Coração Eucarístico, Belo Horizonte ,-19.9242494,-43.9883924
"Rua Ocidental, 126 ",320.0,1,160000.0,2,50, Serrano, Belo Horizonte ,-19.8859929,-44.0105181
"Avenida Portugal, 2434 ",,1,750000.0,--,130, Santa Amélia, Belo Horizonte ,-19.8425871,-43.9698185
Rua Vitório Marcola ,580.0,1,495000.0,3,96, Anchieta, Belo Horizonte ,-19.9489372,-43.9230864
"Rua Doutor Rubens Guimarães, 256 ",680.0,2,1100000.0,4,190, Castelo, Belo Horizonte ,-19.8880639,-43.9981387
"Rua Bambuí, 699 ",430.0,2,670000.0,2,72, Cruzeiro, Belo Horizonte ,-19.9521977,-43.9262572
"Rua Ouro Preto, 1102 ",,2-3,1298925.0,3-4,103-128, Santo Agostinho, Belo Horizonte ,-19.9190479,-43.949625
"Rua Nhanduti, 287 ",,10,2690000.0,18,1050, Caiçara Adeláide, Belo Horizonte ,-19.903732,-43.9746476
"Rua Professor Euclydes Ferreira, 339 ",450.0,2,410000.0,2,61, Buritis, Belo Horizonte ,-19.9701337,-43.972571
"Rua Manoel Passos, 743 ",,1,420000.0,4,149, Santa Cruz, Belo Horizonte ,-19.8775142,-43.9454267
"Rua Rio Grande do Sul, 1212 ",1600.0,2,1680000.0,4,142, Santo Agostinho, Belo Horizonte ,-19.9227162,-43.946463
"Rua Padre Francisco Arantes, 151 ",300.0,--,312000.0,3,75, Vila Paris, Belo Horizonte ,-19.9530867,-43.9514407
"Rua Djezar Leite, 200 ",190.0,1,180000.0,2,46, Gameleira, Belo Horizonte ,-19.941864,-43.9942715
"Rua Ouro Preto, 1240 ",,4,1900000.0,4,133, Santo Agostinho, Belo Horizonte ,-19.9190479,-43.949625
"Avenida Coronel José Dias Bicalho, 456 ",320.0,2,550000.0,3,126, São José, Belo Horizonte ,-19.8590713,-43.9656056
"Rua Vitória, 85 ",255.0,1,214000.0,2,60, Santa Cruz, Belo Horizonte ,-19.8805752,-43.9366111
"Rua Alberto Ambrósio dos Santos, 133 ",,--,560000.0,--,436, Mantiqueira, Belo Horizonte ,-19.8029566,-43.9777127
"Rua Aurélio Lopes, 248 ",280.0,4,1400000.0,3,208, Diamante, Belo Horizonte ,-19.9954293,-44.0194475
"Praça Um Mil e Cinquenta e Dois, 17 ",330.0,1,280000.0,2,64, Castelo, Belo Horizonte ,-19.876972950000003,-43.99427659322822
"Rua Xapuri, 607 ",825.0,2,844900.0,3,89, Grajaú, Belo Horizonte ,-19.9437549,-43.9704569
"Rua Grão Pará, 486 ",,2,884290.0,2-3,64-93, Santa Efigênia, Belo Horizonte ,-19.9220194,-43.9214366
"Rua Cláudio Manoel, 622 ",700.0,2,1111500.0,3,95, Funcionários, Belo Horizonte ,-19.9335821,-43.9329926
Rua Santo Antônio ,198.0,1,155000.0,2,50, São João Batista, Belo Horizonte ,-19.8282851,-44.00698
Rua Xingu ,,4,1300000.0,4,300, Santa Lúcia, Belo Horizonte ,-19.9729011,-43.9504096
"Rua Jacuí, 3480 ",,--,250000.0,1,55, Ipiranga, Belo Horizonte ,-19.8777593,-43.9290751
Rua Doutor José Welinton ,140.0,1,220000.0,2,62, Planalto, Belo Horizonte ,-19.8353338,-43.943499
"Rua Rio Grande do Norte, 1022 ",,2,1055414.0,3,84-87, Funcionários, Belo Horizonte ,-19.9302239,-43.9306127
"Rua Barão de Coromandel, 789 ",550.0,3,750000.0,4,132, Barreiro, Belo Horizonte ,-19.8997258,-43.968762
Rua Izabel Alves Martins ,240.0,2,330000.0,2,62, Serrano, Belo Horizonte ,-19.882997,-44.0112702
"Rua André Cavalcanti, 730 ",1565.0,3,2300000.0,4,141, Gutierrez, Belo Horizonte ,-19.9319115,-43.9611283
"Rua Inspetor José Aparecido, 197 ",,6,1150000.0,8,600, São Bento, Belo Horizonte ,-19.9620119,-43.9528593
"Rua Xangrilá, 75 ",1900.0,4,3400000.0,5,620, Pampulha, Belo Horizonte ,-19.7532823,-43.9417148
"Rua Maria Borboleta, 1138 ",,1,620000.0,3,203, Jardim dos Comerciários, Belo Horizonte ,-19.7977477,-43.9764092
"Rua Cachoeira de Minas, 114 ",920.0,3,680000.0,4,136, Gutierrez, Belo Horizonte ,-19.9465331,-43.9600379
"Rua Felipe dos Santos, 576 ",,2,1202181.0,2-3,92-125, Lourdes, Belo Horizonte ,-19.9342841,-43.9462997
Rua Cardoso ,580.0,2,780000.0,3,174, Santa Efigênia, Belo Horizonte ,-19.9198846,-43.9119026
"Rua Pains, 59 ",423.0,1,555000.0,3,118, Sion, Belo Horizonte ,-19.9552539,-43.9311769
Avenida Novara ,,6,2700000.0,6,800, Bandeirantes, Belo Horizonte ,-19.8602566,-43.9880343
"Rua Dom João Antônio dos Santos, 000 ",,--,2500000.0,12,361, Coração Eucarístico, Belo Horizonte ,-19.9206452,-43.9879917
"Rua São Paulo, 1905 ",1012.0,2,1350000.0,3,90, Lourdes, Belo Horizonte ,-19.914782,-43.9388011
"Rua Tomé de Souza, 830 ",,--,54000.0,--,53, Savassi, Belo Horizonte ,-19.9388244,-43.9274451
"Rua Martim de Carvalho, 440 ",,3,1137069.0,3,82-86, Santo Agostinho, Belo Horizonte ,-19.9311733,-43.9479411
Rua Gipsita ,,--,530000.0,--,400, Candelaria, Belo Horizonte ,-19.8098463,-43.9755178
"Avenida Engenheiro Carlos Goulart, 1278 ",650.0,6,4480000.0,4,653, Buritis, Belo Horizonte ,-19.9703438,-43.960916
"Rua Antônio de Albuquerque, 894 ",900.0,1,1500000.0,2,79, Savassi, Belo Horizonte ,-19.936584,-43.9421163
"Rua Santa Rita Durão, 614 ",600.0,1,850000.0,4,140, Savassi, Belo Horizonte ,-19.9344756,-43.9346452
"Rua dos Tupis, 274 ",585.0,--,365000.0,3,99, Centro, Belo Horizonte ,-19.9205221,-43.9435645
"Rua Bernardo Guimarães, 199 ",,2,895240.0,2-3,67-94, Funcionários, Belo Horizonte ,-19.927333,-43.9477878
"Rua Cata Preta, 459 ",150.0,1,175000.0,2,43, João Pinheiro, Belo Horizonte ,-19.932214,-43.9986254
"Rua Císsus, 148 ",,1,4200000.0,13,2250, Juliana, Belo Horizonte ,-19.809608,-43.9442964
"Rua Dona Queridinha, 285 ",,2,558000.0,3,80, Itapoã, Belo Horizonte ,-19.837092,-43.9623659
"Rua Engenheiro Walter Kurrle, 15 ",3700.0,4,2900000.0,4,239, Belvedere, Belo Horizonte ,-19.9777773,-43.9433639
"Rua Visconde de Mauá, 95 ",234.0,1,200000.0,2,44, Califórnia, Belo Horizonte ,-19.9258557,-44.0140584
"Rua dos Inconfidentes, 766 ",,2,1050000.0,2-3,65-81, Savassi, Belo Horizonte ,-19.937775,-43.9268338
"Rua Trifana, 247 ",750.0,2,650000.0,2,72, Serra, Belo Horizonte ,-19.9442676,-43.9178316
Rua Cantor Luiz Gonzaga ,140.0,2,565000.0,3,191, Castelo, Belo Horizonte ,-19.889068,-44.0008325
Rua Frei Caneca ,240.0,1,290000.0,3,85, Bonfim, Belo Horizonte ,-19.907047,-43.9574328
"Rua Mendoza, 83 ",400.0,2,465000.0,3,150, São Pedro, Belo Horizonte ,-19.9513071,-43.937821
"Avenida Augusto de Lima, 1121 ",502.0,--,196000.0,1,50, Barro Preto, Belo Horizonte ,-19.9230616,-43.9441556
"Rua Monte Simplon, 405 ",,2,429000.0,2,63, Nova Suíssa, Belo Horizonte ,-19.9295351,-43.9824004
"Rua Antônio de Albuquerque, 1.008 ",,2,,3,106-170, Savassi, Belo Horizonte ,-19.936584,-43.9421163
"Rua Rio de Janeiro, 1165 ",399.0,1,420000.0,1,58, Centro, Belo Horizonte ,-19.9150685,-43.9375314
"Rua Cipreste, 200 ",320.0,1,235000.0,2,47, Marajó, Belo Horizonte ,-19.9605408,-43.978523
"Avenida Afonso Pena, 4040 ",2000.0,3,3000000.0,6,400, Cruzeiro, Belo Horizonte ,-19.9469331,-43.9212512
"Rua Turibaté, 191 ",1000.0,3,985000.0,3,130, Sion, Belo Horizonte ,-19.9564616,-43.931951
"Rua Serranos, 61 ",1800.0,3,1500000.0,4,248, Serra, Belo Horizonte ,-19.9438121,-43.916671
"Rua Jacuí, 766 ",,5,1390000.0,5,315, Floresta, Belo Horizonte ,-19.8777593,-43.9290751
"Rua dos Inconfidentes, 597 ",,2,725503.0,2,58, Savassi, Belo Horizonte ,-19.937775,-43.9268338
"Rua Sônia, 203, ",,4,520000.0,3,137, Penha, Belo Horizonte ,-19.8583398,-43.9335451
"Rua Paraguai, 66 ",400.0,2,625000.0,2,63, Sion, Belo Horizonte ,-19.947766,-43.9338933
"Rua Belfort Roxo, 275 ",200.0,1,215000.0,3,70, Grajaú, Belo Horizonte ,-19.9427834,-43.9663408
"Rua Araguari, 1331 ",1650.0,3,1950000.0,3,135, Santo Agostinho, Belo Horizonte ,-19.9304083,-43.9514156
Rua Dona Cidinha Stussi ,260.0,1,400000.0,3,73, Santa Amélia, Belo Horizonte ,-19.8408076,-43.9848631
"Rua Aluísio Lobão Veras, 201 ",250.0,1,230000.0,3,72, Serrano, Belo Horizonte ,-19.8816511,-44.0073674
"Rua dos Inconfidentes, 597 ",,2,705929.0,2,57, Funcionários, Belo Horizonte ,-19.937775,-43.9268338
"Rua Monte Castelo, 170 ",250.0,2,779000.0,3,136, Itapoã, Belo Horizonte ,-19.8361417,-43.9696521
"Rua Augusto Clementino, 275 ",,4,1200000.0,6,326, Santa Amélia, Belo Horizonte ,-19.8341265,-43.981495
Rua Desembargador Custódio Lustosa ,300.0,2,850000.0,3,106, Itapoã, Belo Horizonte ,-19.8360944,-43.957278
"Rua Professor Aníbal Mattos, 313 ",700.0,1,620000.0,3,110, Santo Antônio, Belo Horizonte ,-19.9480862,-43.944339
Rua Orange ,1750.0,2,1590000.0,4,143, São Pedro, Belo Horizonte ,-19.9410165,-43.9356136
"Rua dos Borges, 390 ",166.0,1,150000.0,2,49, São Gabriel, Belo Horizonte ,-19.8413359,-43.8776027
"Rua Genoveva de Souza, 879 ",,2,,2,69, Sagrada Família, Belo Horizonte ,-19.9067997,-43.9216393
Rua Visconde de Taunay ,256.0,2,279000.0,3,70, Santa Mônica, Belo Horizonte ,-19.9281876,-43.9199884
Rua Dona Cidinha Stussi ,,4,980000.0,4,254, Santa Amélia, Belo Horizonte ,-19.8408076,-43.9848631
"Rua Tomé de Souza, 95 ",,3,1850000.0,3,118, Savassi, Belo Horizonte ,-19.9388244,-43.9274451
"Rua Buenos Aires, 213 ",350.0,--,335000.0,2,75, Sion, Belo Horizonte ,-19.9499624,-43.9360413
"Rua Bolívia, 387 ",760.0,1,420000.0,3,115, São Pedro, Belo Horizonte ,-19.9488009,-43.9368301
"Rua Stella Hanriot, 518 ",817.0,3,660000.0,3,86, Buritis, Belo Horizonte ,-19.9715766,-43.9715633
"Rua Araguari, 1692 ",,2,877158.0,2-3,66-86, Santo Agostinho, Belo Horizonte ,-19.9304083,-43.9514156
"Rua Senador Pompéo, 89 ",550.0,1,500000.0,2,63, Serra, Belo Horizonte ,-19.9361721,-43.9202723
"Rua Pioneiros da Paz, 55 ",,5,1395000.0,5,360, Santa Amélia, Belo Horizonte ,-19.8388031,-43.9796899
"Rua Dona Cecília, 86 ",1941.0,4,2000000.0,5,220, Serra, Belo Horizonte ,-19.9377676,-43.922114
"Avenida Álvares Cabral, 397 ",,--,1399999.0,--,240, Lourdes, Belo Horizonte ,-19.9244866,-43.9354151
"Rua Paracatu, 727 ",,2,1200000.0,1,180, Barro Preto, Belo Horizonte ,-19.9198913,-43.9512169
"Avenida Vilarinho, 1731 ",355.0,1,250000.0,3,1000, Venda Nova, Belo Horizonte ,-19.8196297,-43.9521259
"Rua Bauxita, 114 ",,2-3,,3,74-141, Santa Tereza, Belo Horizonte ,-19.9129781,-43.9189177
"Rua Alvarenga Peixoto, 1285 ",350.0,1,650000.0,3,129, Santo Agostinho, Belo Horizonte ,-19.929576,-43.9494157
"Avenida José Cândido da Silveira, 509 ",,--,1200000.0,--,360, Cidade Nova, Belo Horizonte ,-19.8772474,-43.9104561
Rua Mário de Andrade Gomes ,,2,390000.0,4,150, Sagrada Família, Belo Horizonte ,-19.9109591,-43.9187938
"Rua Alcântara, 423 ",,2,1100000.0,4,178, Nova Granada, Belo Horizonte ,-19.9374107,-43.9712444
"Rua São Romão, 209 ",450.0,2,599000.0,3,118, Santo Antônio, Belo Horizonte ,-19.9450687,-43.9402399
"Rua dos Inconfidentes, 732 ",850.0,1,1500000.0,3,200, Savassi, Belo Horizonte ,-19.937775,-43.9268338
"Rua Gonçalves Dias, 31 ",,3,,3,106-170, Funcionários, Belo Horizonte ,-19.9311846,-43.9376407
"Rua Senhora da Paz, 1013 ",,2,960000.0,5,211, Cachoeirinha, Belo Horizonte ,-19.8934302,-43.9446795
"Rua Carioca, 750 ",,3,700000.0,4,97, Padre Eustáquio, Belo Horizonte ,-19.9158375,-43.9876115
"Rua Aramirim, 35 ",720.0,2,590000.0,3,66, Nova Suíssa, Belo Horizonte ,-19.9329559,-43.9727671
Rua dos Otoni ,921.0,2,1235000.0,3,101, Santa Efigênia, Belo Horizonte ,-19.86409,-43.9327907
"Rua Expedicionário Salvador Alves, 144 ",160.0,1,200000.0,2,55, Itatiaia, Belo Horizonte ,-19.8703915,-44.0136668
"Alameda das Palmeiras, 95 ",,13,3440000.0,7,800, São Luíz, Belo Horizonte ,-19.857305,-43.9715466
"Rua Fernandes Tourinho, 221 ",,2,,2,63-67, Savassi, Belo Horizonte ,-19.9393917,-43.9358894
"Rua Francisco Augusto Rocha, 101 ",400.0,2,399000.0,3,69, Planalto, Belo Horizonte ,-19.8259057,-43.9535056
"Rua Nelson, 319 ",,--,439800.0,--,50, União, Belo Horizonte ,-19.8821223,-43.9237077
"Rua Conceição do Pará, 556 ",,--,3200000.0,--,853, Santa Inês, Belo Horizonte ,-19.894933,-43.9115401
"Rua Deputado Bernardino de Sena Figueiredo, 1177 ",,3,750000.0,3,150, Cidade Nova, Belo Horizonte ,-19.8840778,-43.9282818
Rua Itabira ,220.0,1,265000.0,3,60, Colégio Batista, Belo Horizonte ,-19.9076379,-43.94024
"Praça Afonso Arinos, 176 ",900.0,1,750000.0,3,150, Centro, Belo Horizonte ,-19.925327099999997,-43.93653147605973
"Rua Dante, 133 ",,2,790000.0,4,132, São Lucas, Belo Horizonte ,-19.9305605,-43.9206684
"Rua Sergipe, 15 ",500.0,--,330000.0,2,77, Funcionários, Belo Horizonte ,-19.9276923,-43.9354354
"Rua Oliveiro Marciano, 315 ",300.0,1,149900.0,2,45, Diamante, Belo Horizonte ,-19.992021,-44.0224834
"Rua Iraí, 577 ",1000.0,2,860000.0,4,140, Vila Paris, Belo Horizonte ,-19.9463585,-43.9507721
Rua Alga Vermelha ,270.0,1,340000.0,3,70, Floramar, Belo Horizonte ,-19.8284095,-43.9397953
"Rua dos Aeronautas, 400 ",270.0,2,400000.0,3,79, Liberdade, Belo Horizonte ,-19.8589699,-43.9558088
"Rua Alga Vermelha, 120 ",389.0,1,420000.0,3,79, Jardim Guanabara, Belo Horizonte ,-19.8284095,-43.9397953
"Rua Prados, 567 ",,2,,2,53-106, Carlos Prates, Belo Horizonte ,-19.908874,-43.9581104
Rua São Bento ,700.0,2,1300000.0,3,230, Graça, Belo Horizonte ,-19.902532,-43.9179091
"Avenida Afonso Pena, 941 ",,--,2600000.0,--,804, Centro, Belo Horizonte ,-19.9469331,-43.9212512
Rua Moreira Antunes ,,--,200000.0,2,100, Beija Flor, Belo Horizonte ,-19.8336238,-43.8714023
"Rua Pastor Achilles Barbosa, 381 ",225.0,1,192000.0,2,44, Palmares, Belo Horizonte ,-19.8719417,-43.9377335
Rua Itamaracá ,,3,950000.0,7,292, Concórdia, Belo Horizonte ,-19.9032036,-43.9339234
Rua Rádio ,,2-3,528600.0,2-3,63-83, São Lucas, Belo Horizonte ,-19.933145,-43.9191379
Rua Raimundo Albergaria Filho ,50.0,1,428000.0,4,130, Copacabana, Belo Horizonte ,-19.8382317,-43.9943135
"Rua dos Timbiras, 1936 ",,--,238000.0,--,33, Lourdes, Belo Horizonte ,-19.9302789,-43.9251047
"Rua Álvares de Azevedo, 153 ",,4,999000.0,3,245, Floresta, Belo Horizonte ,-19.908646,-43.9397161
"Rua Monte Castelo, 170 ",250.0,2,689000.0,3,160, Itapoã, Belo Horizonte ,-19.8361417,-43.9696521
"Rua Gonçalves Crespo, 192 ",,--,330000.0,--,264, Santa Maria, Belo Horizonte ,-19.93697,-44.0100163
"Rua Recy Souza Paiva, 193 ",150.0,2,394000.0,3,60, Planalto, Belo Horizonte ,-19.8349727,-43.9541979
"Rua Desembargador Custódio Lustosa, 56 ",300.0,2,700000.0,3,93, Itapoã, Belo Horizonte ,-19.8360944,-43.957278
"Rua Alumínio, 50 ",,3-4,,3-4,164-231, Serra, Belo Horizonte ,-19.9390308,-43.9256143
"Avenida João Pinheiro, 581 ",615.0,1,498000.0,1,69, Funcionários, Belo Horizonte ,-19.9268305,-43.9366543
"Rua Alagoas, 1182 ",300.0,2,780000.0,2,98, Savassi, Belo Horizonte ,-19.9314695,-43.9350021
Rua Caraça ,1800.0,5,1950000.0,4,246, Serra, Belo Horizonte ,-19.9430505,-43.9141262
"Rua Abel Araújo, 480 ",,6,2200000.0,4,215, São Bento, Belo Horizonte ,-19.9586719,-43.9548575
"Rua Salinas, 683 ",,2,1140000.0,5,264, Floresta, Belo Horizonte ,-19.91359,-43.9138661
"Rua Alumínio, 50 ",,3,,3-4,226-231, Serra, Belo Horizonte ,-19.9390308,-43.9256143
"Avenida Getúlio Vargas, 887 ",,4,1490000.0,--,154, Savassi, Belo Horizonte ,-19.9357431,-43.9313935
"Rua Cláudio Gomes de Souza, 321 ",330.0,2,350000.0,3,65, Palmares, Belo Horizonte ,-19.8712648,-43.9389073
Rua Henrique Cabral ,570.0,4,660000.0,4,110, São Luíz, Belo Horizonte ,-19.8528774,-43.960721
"Avenida Francisco Sales, 1614 ",,--,1800000.0,5,262, Santa Efigênia, Belo Horizonte ,-19.9221979,-43.927814
"Rua São Domingos do Prata, 570 ",,3-4,,4,143, Santo Antônio, Belo Horizonte ,-19.9450923,-43.9374086
"Rua Santa Rita Durão, 321 ",,--,200000.0,--,35, Funcionários, Belo Horizonte ,-19.9344756,-43.9346452
Rua Pastor Achilles Barbosa ,350.0,2,399000.0,3,74, Palmares, Belo Horizonte ,-19.8719417,-43.9377335
"Rua Rúbia Mara Barbosa, 45 ",250.0,1,188000.0,2,45, Diamante, Belo Horizonte ,-19.9905509,-44.0224837
Rua Pires da Mota ,200.0,1,299000.0,3,110, Madre Gertrudes, Belo Horizonte ,-19.9486642,-44.0028674
"Avenida Dom Pedro II, 57 ",,--,990000.0,1,700, Carlos Prates, Belo Horizonte ,-19.9139307,-43.9537918
"Rua Dom Lúcio Antunes, 448 ",320.0,2,1250000.0,3,221, Coração Eucarístico, Belo Horizonte ,-19.9259176,-43.9912562
"Rua São Domingos do Prata, 570 ",,3-4,1731801.0,4,143-173, Santo Antônio, Belo Horizonte ,-19.9450923,-43.9374086
Rua Oligisto ,150.0,2,470000.0,3,75, Santa Tereza, Belo Horizonte ,-19.9117656,-43.913358
"Avenida Cristiano Machado, 640 ",,--,145000.0,--,28, Cidade Nova, Belo Horizonte ,-19.8475195,-43.9324755
"Rua José Oscar Barreira, 261 ",200.0,2,750000.0,3,144, Itapoã, Belo Horizonte ,-19.8384733,-43.9556921
Rua Monte Alverne ,600.0,1,430000.0,3,78, Floresta, Belo Horizonte ,-19.8489071,-43.9292352
"Rua Doutor Benedito Xavier, 1221 ",,5,715000.0,5,250, Providência, Belo Horizonte ,-19.8455372,-43.9183907
"Rua Major Lopes, 475 ",,2,1019875.0,2-3,68-97, São Pedro, Belo Horizonte ,-19.9475495,-43.9353399
"Rua Cláudio Manoel, 622 ",700.0,3,1969136.0,4,159, Funcionários, Belo Horizonte ,-19.9335821,-43.9329926
Rua Bolivar Mineiro ,300.0,2,797000.0,3,150, Dona Clara, Belo Horizonte ,-19.8597149,-43.9436186
"Avenida Professor Mário Werneck, 1461 ",,2,490000.0,3,75, Estoril, Belo Horizonte ,-19.9758245,-43.9684461
Rua Alessandra Salum Cadar ,400.0,2,850000.0,3,145, Buritis, Belo Horizonte ,-19.9760471,-43.9703167
"Rua dos Carijós, 244 ",,--,750000.0,--,330, Centro, Belo Horizonte ,-19.9199467,-43.9351965
"Rua Doutor Rubens Guimarães, 93 ",350.0,2,440000.0,3,92, Castelo, Belo Horizonte ,-19.8880639,-43.9981387
"Rua Congonhas, 132 ",,3-4,1926120.0,4,147-157, São Pedro, Belo Horizonte ,-19.9433887,-43.941144
Rua José Silva Passos ,400.0,2,310000.0,2,65, Nova Vista, Belo Horizonte ,-19.8864022,-43.8921415
Rua Bonaparte ,500.0,2,589000.0,3,98, Padre Eustáquio, Belo Horizonte ,-19.9151552,-43.9728782
"Rua Sargento João Ovídio, O ",,--,260000.0,--,401, Jonas Veiga, Belo Horizonte ,-19.9190624,-43.895964
"Rua Nossa Senhora dos Remédios, 251 ",,--,350000.0,--,727, Ouro Minas, Belo Horizonte ,-19.8437218,-43.9041436
"Rua das Clarissas, 31 ",205.0,1,195000.0,2,51, Planalto, Belo Horizonte ,-19.839381,-43.9415232
"Rua Congonhas, 132 ",,3-4,1779000.0,4,147-157, São Pedro, Belo Horizonte ,-19.9433887,-43.941144
"Rua dos Timbiras, 395 ",650.0,2,1053338.0,2,114, Funcionários, Belo Horizonte ,-19.9302789,-43.9251047
"Rua dos Carijós, 126 ",,--,900000.0,--,960, Centro, Belo Horizonte ,-19.9199467,-43.9351965
"Rua Júlio de Castilho, 1080 ",,--,2390000.0,--,1370, Cinqüentenário, Belo Horizonte ,-19.9610731,-43.9808977
Avenida Prudente de Morais ,,--,262000.0,--,80, Cidade Jardim, Belo Horizonte ,-19.9474128,-43.9485341
Rua Professor José Carvalho Lopes ,50.0,3,1000000.0,4,410, Planalto, Belo Horizonte ,-19.8380539,-43.9439825
"Rua Estácio Rodrigues, lote ",,--,320000.0,--,360, Havaí, Belo Horizonte ,-19.9587201,-43.970714
"Rua Marabá, 44 ",,2,689000.0,3,76, Santo Antônio, Belo Horizonte ,-19.9452195,-43.9478402
"Rua Piauí, 1702 ",,3,2450000.0,8,300, Funcionários, Belo Horizonte ,-19.9385064,-43.9287698
"Rua dos Inconfidentes, 443 ",1850.0,4,2450000.0,4,174, Funcionários, Belo Horizonte ,-19.937775,-43.9268338
Rua Professora Mírian Silvestre ,90.0,2,185000.0,2,60, Serra Verde, Belo Horizonte ,-19.7967838,-43.9523668
"Rua José Oscar Barreira, 261 ",200.0,4,950000.0,4,184, Itapoã, Belo Horizonte ,-19.8384733,-43.9556921
Rua Alessandra Salum Cadar ,,1,149900.0,--,25, Buritis, Belo Horizonte ,-19.9760471,-43.9703167
"Rua Carlos Schettino, 284 ",150.0,1,178000.0,2,58, Gameleira, Belo Horizonte ,-19.9427423,-43.9951065
"Rua Conselheiro Andrade Figueira, 30 ",,2,625000.0,2-3,63-83, Gutierrez, Belo Horizonte ,-19.940385,-43.956856
Rua Olívia Maria de Jesus ,,4,540000.0,5,300, Floramar, Belo Horizonte ,-19.8333087,-43.9362641
"Rua dos Tupinambás, 179 ",,--,77000.0,--,42, Centro, Belo Horizonte ,-19.9185301,-43.9357154
Rua Júlia Lopes de Almeida ,,3,890000.0,9,469, Santa Maria, Belo Horizonte ,-19.9369661,-44.0103308
Avenida Guarapari ,240.0,1,275000.0,3,73, Santa Amélia, Belo Horizonte ,-19.8457686,-43.9775604
Avenida do Contorno ,,1,630000.0,--,61, Funcionários, Belo Horizonte ,-19.9156428,-43.9453796
"Rua Lavras, 825 ",,2,865338.0,2,110, São Pedro, Belo Horizonte ,-19.9481626,-43.9382658
Rua Joaquim Nabuco ,294.0,2,700000.0,3,131, Nova Suíssa, Belo Horizonte ,-19.9356554,-43.9771593
Rua Frei Manoel da Cruz ,1200000.0,2,1100000.0,3,125, Liberdade, Belo Horizonte ,-19.860945,-43.9503519
"Rua São Miguel, 642 ",190.0,--,230000.0,3,68, Itapoã, Belo Horizonte ,-19.8431613,-43.956633
"Rua Professor Fernando de Magalhães, 121 ",,--,500000.0,--,360, Álvaro Camargos, Belo Horizonte ,-19.9153831,-44.0082815
Rua Desembargador Edésio Fernandes ,,10,8000000.0,--,550, Estoril, Belo Horizonte ,-19.9698548,-43.9558963
Rua Alberto Nepomuceno ,,2,385000.0,2,78, Estrela Dalva, Belo Horizonte ,-19.9656282,-43.9751672
"Rua Lavras, 825 ",,1,504444.0,2,50-110, São Pedro, Belo Horizonte ,-19.9481626,-43.9382658
"Rua Mato Grosso, 355 ",,--,130000000.0,--,31, Centro, Belo Horizonte ,-19.9173124,-43.9464026
"Rua Contria, 155 ",350.0,2,620000.0,4,150, Calafate, Belo Horizonte ,-19.9288646,-43.9703277
"Rua Dom Pedrito, 256 ",225.0,1,245000.0,2,55, Nova Vista, Belo Horizonte ,-19.8850209,-43.9034328
Rua Esmeraldo Botelho ,280.0,2,829000.0,3,100, Buritis, Belo Horizonte ,-19.979412,-43.9679018
"Rua Rio Negro, 820 ",,2-3,548000.0,3,73-81, Barroca, Belo Horizonte ,-19.9290593,-43.9661029
Rua Armando Greco ,200.0,1,179000.0,3,62, Frei Leopoldo, Belo Horizonte ,-19.8085515,-43.9357313
"Rua Bernardo Guimarães, 2014 ",800.0,1,680000.0,2,80, Lourdes, Belo Horizonte ,-19.927333,-43.9477878
"Avenida Otacílio Negrão de Lima, 13330 ",,--,1080000.0,--,1000, Bandeirantes, Belo Horizonte ,-19.8609803,-43.9768403
"Rua Póvoa de Varzim, 66 ",,--,1500000.0,--,1000, Paquetá, Belo Horizonte ,-19.8700528,-43.9935356
Rua Garret ,600.0,2,980000.0,3,110, Grajaú, Belo Horizonte ,-19.9440107,-43.9712955
Rua Espírito Santo ,,1,400000.0,--,35, Lourdes, Belo Horizonte ,-18.8647762,-41.1217768
"Rua João da Cunha, 98 ",,2,753200.0,3,80, Prado, Belo Horizonte ,-19.9290311,-43.9709895
Rua Ceuta ,,7,700000.0,3,222, Canaã, Belo Horizonte ,-19.7942371,-43.948405
"Rua Fluorina, 1660 ",,3,449000.0,2,120, Paraíso, Belo Horizonte ,-19.9157731,-43.9051504
Rua Paulo Piedade Campos ,798.0,2,805000.0,4,105, Estoril, Belo Horizonte ,-19.9616947,-43.9652056
Rua Itapoã ,,--,3600000.0,--,2400, Guarani, Belo Horizonte ,-19.8025366,-44.0251495
"Rua Cristina, 57 ",,3,,4,145-157, Anchieta, Belo Horizonte ,-19.9472539,-43.9352691
Avenida Silviano Brandão ,,4,3500000.0,--,507, Floresta, Belo Horizonte ,-19.9074223,-43.9107081
Rua Patagônia ,650.0,2,590000.0,4,175, Sion, Belo Horizonte ,-19.9592013,-43.9350687
"Rua Livramento, lotes 10 e 12 ",,--,1100000.0,--,635, Alto dos Pinheiros, Belo Horizonte ,-19.9353123,-44.0000188
"Rua Rio de Janeiro, 1186 ",550.0,1,1500.0,2,65, Centro, Belo Horizonte ,-19.9150685,-43.9375314
Rua Arthur Lourenço ,150.0,2,380000.0,3,85, Barreiro, Belo Horizonte ,-19.9799149,-44.0260075
"Rua Agostinho Bretas, 11 ",,1-2,,2-3,72, Caiçaras, Belo Horizonte ,-19.9013306,-43.97
Rua Maranhão ,,3,1750000.0,4,154, Funcionários, Belo Horizonte ,-19.9265829,-43.9240941
"Rua Ajax Correa Rabello, 31 ",,4,1900000.0,4,380, Mangabeiras, Belo Horizonte ,-19.9598514,-43.9168918
Rua São Tomáz de Aquino ,360.0,2,595000.0,3,180, São Pedro, Belo Horizonte ,-19.9504807,-43.9400618
Rua Itajubá ,312.0,3,490000.0,2,110, Sagrada Família, Belo Horizonte ,-19.9111658,-43.9295436
Rua Sergipe ,1150.0,2,1200000.0,3,90, Lourdes, Belo Horizonte ,-19.9276923,-43.9354354
Rua Vicente Risola ,,7,3600000.0,16,795, Santa Inês, Belo Horizonte ,-19.8910177,-43.9084895
Rua Doutor Sylvio Menicucci ,400.0,2,408000.0,3,101, Castelo, Belo Horizonte ,-19.8851177,-44.0059034
"Rua Bambuí, 893 ",,2,1002000.0,3,86, Santo Antônio, Belo Horizonte ,-19.9521977,-43.9262572
Rua Lobo Leite ,,4,890000.0,4,360, Heliópolis, Belo Horizonte ,-19.837781,-43.9402868
"Rua Fausto Nunes Vieira, 1 ",3000.0,4,3000000.0,4,430, Belvedere, Belo Horizonte ,-19.9732179,-43.9362799
Rua Duarte da Costa ,269.0,2,650000.0,3,221, Jaraguá, Belo Horizonte ,-19.8631014,-43.9522357
Rua Alberto Bressane ,470.0,2,420000.0,3,150, São Lucas, Belo Horizonte ,-19.9300689,-43.9139527
"Rua dos Aimorés, 1330 ",875.0,2,1100000.0,2,72, Funcionários, Belo Horizonte ,-19.9245137,-43.9538877
"Rua Estados Unidos, 132 ",,3-4,1551806.0,4,133-160, Sion, Belo Horizonte ,-19.9522548,-43.937375
Rua dos Timbiras ,620.0,1,460000.0,3,84, Lourdes, Belo Horizonte ,-19.9302789,-43.9251047
"Rua Gonçalves Dias, 2565 ",,2,840000.0,2,61, Santo Agostinho, Belo Horizonte ,-19.9311846,-43.9376407
Rua dos Aimorés ,850.0,1,1080000.0,3,182, Funcionários, Belo Horizonte ,-19.9245137,-43.9538877
Rua Itaúna ,530.0,2,2200.0,3,91, Floresta, Belo Horizonte ,-19.9067446,-43.9329186
"Rua Sílvio Menicucci, 157 ",600.0,2,649000.0,3,108, Buritis, Belo Horizonte ,-19.97946,-43.978228
"Rua Assunção, 245 ",580.0,2,590000.0,3,110, Sion, Belo Horizonte ,-19.9539031,-43.9378663
"Rua Estados Unidos, 132 ",,3-4,2420812.0,4-5,275, Sion, Belo Horizonte ,-19.9522548,-43.937375
Rua Odilon Braga ,1534.0,2,4800.0,5,289, Anchieta, Belo Horizonte ,-19.9524463,-43.9223112
Rua Tobias Barreto ,,2,520000.0,3,114, Santa Mônica, Belo Horizonte ,-19.9302388,-43.9757789
Rua Flavita Bretas ,620.0,2,610000.0,3,120, Luxemburgo, Belo Horizonte ,-19.946804,-43.9575754
"Rua Bambuí, 1188 ",,2,735000.0,1-2,54-74, Anchieta, Belo Horizonte ,-19.9521977,-43.9262572
Rua Monte Carmelo ,250.0,2,600000.0,2,153, Floresta, Belo Horizonte ,-19.9104485,-43.927612
"Avenida dos Bandeirantes, 1.190 ",,--,3900000.0,--,--, Comiteco, Belo Horizonte ,-19.9572301,-43.9319731
Rua Professor Pimenta da Veiga ,550.0,2,710000.0,4,177, Cidade Nova, Belo Horizonte ,-19.8891296,-43.9242268
"Rua Alvarenga Peixoto, 1040 ",2000.0,3,1980000.0,3,130, Lourdes, Belo Horizonte ,-19.929576,-43.9494157
"Rua Cardeal Stepinac, 232 ",,3,1422940.0,4,140, Cidade Nova, Belo Horizonte ,-19.8852186,-43.9266104
Rua Professor Magalhães Drumond ,450.0,1,1500.0,3,120, Santo Antônio, Belo Horizonte ,-19.939075,-43.9428019
Rua Leopoldina ,574.0,1,400000.0,3,80, Santo Antônio, Belo Horizonte ,-19.9475349,-43.9422533
Rua José Silveira ,790.0,2,1250000.0,3,168, Buritis, Belo Horizonte ,-19.9734616,-43.9745497
Rua Manhumirim ,500.0,2,658000.0,3,116, Caiçaras, Belo Horizonte ,-19.9064111,-43.9714806
"Rua Mucuri, 231 ",,3,914000.0,3,211, Floresta, Belo Horizonte ,-19.9187008,-43.9268711
Rua Curitiba ,2975.0,3,2500000.0,4,273, Lourdes, Belo Horizonte ,-19.9122312,-43.9396634
"Rua Cardeal Stepinac, 232 ",,3-4,1408950.0,4,140, Cidade Nova, Belo Horizonte ,-19.8852186,-43.9266104
"Rua Laura Soares Carneiro, 71 ",450.0,2,750000.0,3,165, Buritis, Belo Horizonte ,-19.9774397,-43.9651219
"Rua João Antônio Azeredo, 150 ",,4,3970000.0,4,378, Belvedere, Belo Horizonte ,-19.9709536,-43.9409204
"Rua Rosa de Pedra, 26 ",,2,400000.0,3,100, Etelvina Carneiro, Belo Horizonte ,-19.8115016,-43.9362966
"Rua Desembargador José Burnier, 91 ",380.0,1,2500.0,3,102, Castelo, Belo Horizonte ,-19.8905883,-43.9979285
"Rua La Plata, 166 ",,3-4,,3-4,185-238, Sion, Belo Horizonte ,-19.9542202,-43.9328012
"Rua Engenheiro Zoroastro Torres, 384 ",997.0,1,420000.0,3,98, Santo Antônio, Belo Horizonte ,-19.9501613,-43.9450108
Rua São Paulo ,320.0,--,250000.0,1,55, Centro, Belo Horizonte ,-19.914782,-43.9388011
Rua Antônio de Albuquerque ,,3,1400000.0,3,130, Lourdes, Belo Horizonte ,-19.936584,-43.9421163
"Rua Engenheiro Alberto Pontes, 0 ",225.0,1,1300.0,3,60, Buritis, Belo Horizonte ,-19.9689271,-43.9668895
"Rua São Paulo, 1031 ",320.0,--,220000.0,2,60, Centro, Belo Horizonte ,-19.914782,-43.9388011
"Rua La Plata, 166 ",,3,,3-4,237-238, Sion, Belo Horizonte ,-19.9542202,-43.9328012
Rua João Arantes ,352.0,1,400000.0,3,76, Cidade Nova, Belo Horizonte ,-19.8843894,-43.9244911
Rua da Bahia ,,--,180000.0,3,110, Centro, Belo Horizonte ,-19.9151776,-43.9347647
Rua José Ferreira Cascão ,7000.0,5,6700000.0,4,570, Belvedere, Belo Horizonte ,-19.9787549,-43.9444515
Rua México ,,1,235000.0,2,90, Jardim Leblon, Belo Horizonte ,-19.8323096,-43.9935167
Rua Professora Bartira Mourão ,430.0,2,620000.0,3,155, Buritis, Belo Horizonte ,-19.9691439,-43.9679544
"Rua Helianto, 239 ",,2,639000.0,3,79, Nova Suíssa, Belo Horizonte ,-19.9313486,-43.9720668
"Rua Ametista, 0 ",160.0,1,478000.0,3,127, Prado, Belo Horizonte ,-19.9239225,-43.960094
Rua Colômbia ,290.0,2,450000.0,3,142, Sion, Belo Horizonte ,-19.9521465,-43.9379054
"Rua Gustavo Ladeira, 11 ",485.0,2,325000.0,3,72, Castelo, Belo Horizonte ,-19.8798769,-43.9917158
Rua dos Geólogos ,,3,450000.0,4,242, Alípio de Melo, Belo Horizonte ,-19.895047,-44.0001242
Rua Flor,,2-4,648154.0,3,75,,Belo Horizonte,-19.8339596,-43.8688074
Rua Doutor Plínio de Morais ,583.0,5,1380000.0,4,156, Cidade Nova, Belo Horizonte ,-19.8902515,-43.925024
Rua Doutor Juvenal dos Santos ,900.0,2,850000.0,3,120, Luxemburgo, Belo Horizonte ,-19.9508257,-43.9585445
Rua Assunção ,580.0,2,590000.0,3,110, Sion, Belo Horizonte ,-19.9539031,-43.9378663
Rua Póvoa de Varzim ,279.0,1,190000.0,2,44, Ouro Preto, Belo Horizonte ,-19.8700528,-43.9935356
"Rua Ester de Lima, 745 ",,2,490000.0,3,110, Santa Cruz, Belo Horizonte ,-19.8766925,-43.9399981
"Rua Oliveiro Marciano, 88 ",,4,680000.0,1,360, Barreiro, Belo Horizonte ,-19.992021,-44.0224834
Rua Laura Soares Carneiro ,570.0,3,4500.0,4,185, Buritis, Belo Horizonte ,-19.9774397,-43.9651219
"Rua Goiânia, 264 ",1.0,6,760000.0,3,275, Caiçaras, Belo Horizonte ,-19.9006573,-43.972406
"Rua Maestro George Marinuzzi, 298 ",250.0,2,300000.0,2,60, Manacás, Belo Horizonte ,-19.8933063,-43.9979676
"Rua Cônsul Walter, 203 ",600.0,3,689000.0,3,123, Buritis, Belo Horizonte ,-19.9745736,-43.9696865
"Rua José Silva Passos, 450 ",,1-2,335500.0,2,60, Nova Vista, Belo Horizonte ,-19.8864022,-43.8921415
Rua João de Paula ,150.0,2,498000.0,2,147, Sagrada Família, Belo Horizonte ,-19.900775,-43.9182953
"Rua Paulo Afonso, 502 ",550.0,3,1260000.0,3,103, Santo Antônio, Belo Horizonte ,-19.9468549,-43.9460463
"Rua São Paulo, 2220 ",6082.0,4,6900000.0,4,350, Lourdes, Belo Horizonte ,-19.914782,-43.9388011
"Rua Bernardo Guimarães, 310 ",2000.0,4,3100000.0,4,198, Funcionários, Belo Horizonte ,-19.927333,-43.9477878
"Rua Câncer, 150 ",,--,219000.0,--,25-155, Santa Lúcia, Belo Horizonte ,-19.9679489,-43.9500084
Avenida José Cândido da Silveira ,,2,420000.0,3,85, Cidade Nova, Belo Horizonte ,-19.8772474,-43.9104561
Rua Doutor Pereira de Melo ,,3,950000.0,5,335, Luxemburgo, Belo Horizonte ,-19.943202,-43.9554971
Avenida Afonso Pena ,870.0,--,300000.0,3,114, Centro, Belo Horizonte ,-19.9469331,-43.9212512
Rua Alvarenga Peixoto ,500.0,2,750000.0,4,130, Santo Agostinho, Belo Horizonte ,-19.929576,-43.9494157
Rua Bambuí ,600.0,2,700000.0,4,132, Anchieta, Belo Horizonte ,-19.9521977,-43.9262572
Rua Coronel Fulgêncio ,,4,1290000.0,3,284, São Lucas, Belo Horizonte ,-19.9279564,-43.9193789
"Rua Mariano Procópio, 376 ",,1-3,,2-3,55-146, João Pinheiro, Belo Horizonte ,-19.9305746,-43.9939538
Rua Itajubá ,250.0,3,590000.0,2,111, Sagrada Família, Belo Horizonte ,-19.9111658,-43.9295436
"Rua Valparaíso, 360 ",522.0,2,695000.0,4,154, Sion, Belo Horizonte ,-19.9490878,-43.9358155
Rua dos Expedicionários ,,4,749000.0,3,142, Santa Amélia, Belo Horizonte ,-20.2252407,-44.3977797
Rua dos Xavantes ,,6,600000.0,3,210, Santa Mônica, Belo Horizonte ,-19.8292699,-43.9785643
"Rua Ouro Preto, 1161 ",528.0,2,850000.0,4,175, Santo Agostinho, Belo Horizonte ,-19.9190479,-43.949625
"Rua Kennedy Maro Campos, 187 ",,3,710000.0,3,93, Castelo, Belo Horizonte ,-19.8876077,-43.9975959
Rua Tomé de Souza ,1800.0,1,750000.0,3,100, Savassi, Belo Horizonte ,-19.9388244,-43.9274451
"Rua Campanha, 50 ",400.0,2,850000.0,3,119, Carmo, Belo Horizonte ,-19.94255,-43.9326357
"Rua Bráz Cubas, 77 ",431.0,2,760000.0,3,148, Cruzeiro, Belo Horizonte ,-19.9448694,-43.9283828
"Rua Heitor Sócrates Cardoso, 132 ",100.0,1,420000.0,2,89, Santa Amélia, Belo Horizonte ,-19.8356951,-43.9758151
Rua Nunes Vieira ,500.0,1,530000.0,2,58, Santo Antônio, Belo Horizonte ,-19.9424153,-43.945949
"Rua Úrsula Paulino, 1321 ",,2-3,,2-3,55-75, Betânia, Belo Horizonte ,-19.9669908,-43.9920275
Rua Nelson Soares de Faria ,390.0,2,450000.0,3,87, Cidade Nova, Belo Horizonte ,-19.8922512,-43.9271688
"Avenida Engenheiro Carlos Goulart, 130 ",814.0,2,530000.0,3,98, Buritis, Belo Horizonte ,-19.9703438,-43.960916
Rua Alvarenga Peixoto ,1680.0,4,2350000.0,4,223, Santo Agostinho, Belo Horizonte ,-19.929576,-43.9494157
Avenida Paulo Camilo Pena ,3800.0,4,5950000.0,4,360, Belvedere, Belo Horizonte ,-19.9676329,-43.9429816
Rua Aparecida Feitosa Furtado ,,4,890000.0,5,360, Diamante, Belo Horizonte ,-19.9940007,-44.0177754
Rua Curitiba ,1638.0,2,1150000.0,2,99, Lourdes, Belo Horizonte ,-19.9122312,-43.9396634
"Rua Úrsula Paulino, 1321 ",,1-2,355074.0,2-3,55-75, Estrela do Oriente, Belo Horizonte ,-19.9669908,-43.9920275
Rua Santo Antônio do Monte ,350.0,1,253000.0,3,110, Santo Antônio, Belo Horizonte ,-19.9472748,-43.9410432
Rua Alírio Elias Ferreira ,380.0,2,365000.0,3,89, Cidade Nova, Belo Horizonte ,-19.8841068,-43.9235072
"Rua Montes Claros, 1217 ",550.0,2,1189300.0,3,98, Cruzeiro, Belo Horizonte ,-19.9434371,-43.9342094
"Rua Pouso Alto, 536 ",,5,1350000.0,5,253, Serra, Belo Horizonte ,-19.9332707,-43.9209022
"Rua Desembargador José Satyro, 315 ",,2-3,,3,87-160, Castelo, Belo Horizonte ,-19.8888536,-43.995997
Avenida Expedicionário Benvindo Belém de Lima ,,--,1200000.0,--,1000, São Luíz, Belo Horizonte ,-19.8673564,-43.9785377
Rua Hidra ,,4,1890000.0,5,352, Santa Lúcia, Belo Horizonte ,-19.9616427,-43.9472879
"Rua Demétrio Ribeiro, 75 ",377.0,1,229700.0,2,56, Saudade, Belo Horizonte ,-19.9163944,-43.8936505
"Avenida Amazonas, 713 ",625.0,1,330000.0,3,93, Centro, Belo Horizonte ,-19.9379439,-43.9991336
"Rua Ipê Amarelo, 43 ",,4,2306860.0,4,186-310, Vale do Sereno, Nova Lima ,-19.8483931,-43.8791189
Rua Augustus William Parish ,,1,290000.0,2,53, Santa Amélia, Belo Horizonte ,-19.8352568,-43.9721231
"Rua Doutor Lucídio Avelar, 52 ",200.0,1,230000.0,3,65, Buritis, Belo Horizonte ,-19.9714927,-43.9659325
Rua dos Aimorés ,560.0,2,1230000.0,3,84, Lourdes, Belo Horizonte ,-19.9245137,-43.9538877
"Avenida Senador José Augusto, 260 ",1100.0,3,1280000.0,4,126, Buritis, Belo Horizonte ,-19.9812868,-43.978411
Rua Joanésia ,300.0,3,699000.0,3,134, Serra, Belo Horizonte ,-19.938141,-43.9185333
Rua Augusto Clementino ,,2,575000.0,4,180, Santa Amélia, Belo Horizonte ,-19.8341265,-43.981495
"Rua Boaventura, 2058 ",,2,382007.0,2-3,54-67, Liberdade, Belo Horizonte ,-19.8700087,-43.94948275136835
"Rua Francisco Deslandes, 636 ",1450.0,2,1600000.0,4,363, Anchieta, Belo Horizonte ,-19.9515934,-43.9276908
Rua Paraguai ,385.0,2,780000.0,2,136, Sion, Belo Horizonte ,-19.947766,-43.9338933
"Rua Niteroi, 140 ",,2,549000.0,3,100, Santa Efigênia, Belo Horizonte ,-19.9238926,-43.9163689
Rua Amílcar Vianna Martins ,,4,2800000.0,4,350, Buritis, Belo Horizonte ,-19.9846791,-43.9691247
Avenida Amazonas ,,--,230000.0,3,120, Centro, Belo Horizonte ,-19.9379439,-43.9991336
"Rua Pedra Lavrada, 0 ",,1,196490.0,2,40-41, São Gabriel, Belo Horizonte ,-19.8490873,-43.9124684
Avenida Artur Bernardes ,460.0,1,550000.0,3,95, Vila Paris, Belo Horizonte ,-19.9545898,-43.9465102
Avenida Portugal ,,8,840000.0,3,256, Santa Amélia, Belo Horizonte ,-19.8425871,-43.9698185
Rua Tefé ,250.0,2,429000.0,3,67, Renascença, Belo Horizonte ,-19.8926275,-43.9403345
"Rua Mercês, 29 ",800.0,2,450000.0,2,73, Prado, Belo Horizonte ,-19.9189854,-44.2732979
Rua Engenheiro Amaro Lanari ,500.0,2,890000.0,4,197, Anchieta, Belo Horizonte ,-19.9510325,-43.9294902
"Rua Thomaz Naves, 100 ",,1-2,,3,71-139, Santa Amélia, Belo Horizonte ,-19.841271,-43.9853373
Rua Cláudio Gomes de Souza ,,1,245000.0,2,58, Palmares, Belo Horizonte ,-19.8712648,-43.9389073
"Avenida Dora Tomich Laender, 165 ",,10,4400000.0,5,565, Braúnas, Belo Horizonte ,-19.8446644,-44.0026123
"Rua Caetano de Azeredo, 800 ",,1,800000.0,2,230, Barreiro, Belo Horizonte ,-19.9790634,-44.0166794
Rua Castelo de São Jorge ,380.0,2,410000.0,3,92, Castelo, Belo Horizonte ,-19.8834954,-44.0009026
"Rua dos Borges, 990 ",,--,171000.0,2,47-50, Jardim Vitória, Belo Horizonte ,-19.8413359,-43.8776027
Rua Professor Galba Veloso ,250.0,2,480000.0,3,85, Santa Tereza, Belo Horizonte ,-19.9128102,-43.9195994
Rua Ágata ,340.0,2,590000.0,3,190, União, Belo Horizonte ,-19.884949,-43.9210884
Avenida José Cândido da Silveira ,630.0,2,600000.0,3,94, Sagrada Família, Belo Horizonte ,-19.8772474,-43.9104561
"Rua Palmira, 154 ",,2,775000.0,2,65, Serra, Belo Horizonte ,-19.9400054,-43.9167042
"Rua Osório Duque Estrada, 0 ",,1,243490.0,2,37-45, Planalto, Belo Horizonte ,-19.8289019,-43.9448977
Rua Helena Antipoff ,,4,1990000.0,4,395, São Bento, Belo Horizonte ,-19.9548137,-43.9522343
"Rua Levindo Lopes, 236 ",1680.0,4,3200000.0,3,220, Savassi, Belo Horizonte ,-19.9372043,-43.9394458
"Rua Aluísio Lobão Veras, 75 ",499.0,2,319000.0,3,69, Serrano, Belo Horizonte ,-19.8816511,-44.0073674
"Avenida Afonso Vaz de Melo, 17 ",,--,,1,25, Barreiro, Belo Horizonte ,-19.9766048,-44.0246651
Rua Doutor Cinyras Ladeira ,,2,380000.0,3,81, Heliópolis, Belo Horizonte ,-19.842733,-43.937273
"Rua Odilon Braga, 485 ",1350.0,2,1180000.0,3,134, Anchieta, Belo Horizonte ,-19.9524463,-43.9223112
"Rua Engenheiro Walter Kurrle, 15 ",3200.0,4,2300000.0,4,215, Belvedere, Belo Horizonte ,-19.9777773,-43.9433639
Rua Curitiba ,2351.0,3,2050000.0,4,172, Centro, Belo Horizonte ,-19.9122312,-43.9396634
"Rua Aporé, 324 ",,10,650000.0,5,120, Aparecida, Belo Horizonte ,-19.8893743,-43.9544844
"Rua Engenheiro Alberto Pontes, 434 ",780.0,2,625000.0,3,115, Buritis, Belo Horizonte ,-19.9689271,-43.9668895
"Rua Canto das Aves, 5 ",,4,7650000.0,4,810, Vale dos Cristais, Nova Lima ,-20.0120386,-43.9260328
Avenida Pedro Serafim Ferreira ,,6,2490000.0,4,600, Palmares, Belo Horizonte ,-19.8724439,-43.9292508
Rua Afonso Ferreira Gomes ,,2,1490000.0,3,229, Castelo, Belo Horizonte ,-19.8719965,-43.9980992
Rua Pioneiros da Paz ,,2,359999.0,3,120, Santa Amélia, Belo Horizonte ,-19.8388031,-43.9796899
"Rua Curitiba, 224 ",,--,4000000.0,45,0, Centro, Belo Horizonte ,-19.9122312,-43.9396634
Rua Professor Moraes ,1100.0,3,1180000.0,4,120, Savassi, Belo Horizonte ,-19.8624858,-43.9614177
"Rua Benjamim Dias, 407 ",,2,,3,104, Barreiro, Belo Horizonte ,-20.3810929,-43.5107869
Rua Santos ,250.0,1,250000.0,2,46, Jardim América, Belo Horizonte ,-19.9957125,-43.9799614
"Rua Thomaz Naves, 100 ",280.0,1,419600.0,3,71, Santa Amélia, Belo Horizonte ,-19.841271,-43.9853373
"Rua Guido Ciolette, 52 ",,--,,2,47-62, Santa Helena, Belo Horizonte ,-19.9804924,-44.0163387
Rua Nízio Torres ,,2,289900.0,2,57, Ouro Preto, Belo Horizonte ,-19.8859014,-43.9857664
Avenida Dom José Gaspar ,650.0,3,1500000.0,3,201, Coração Eucarístico, Belo Horizonte ,-19.9260318,-43.9927246
Rua Maria Heilbuth Surette ,400.0,4,1350000.0,4,231, Buritis, Belo Horizonte ,-19.9671931,-43.9714445
Rua Montevidéu ,2900.0,4,4300.0,4,207, Sion, Belo Horizonte ,-19.9510708,-43.9349719
"Avenida Waldyr Soeiro Emrich, 3429 ",,1-2,,2,48-98, Novo das Indústrias, Belo Horizonte ,-19.9832414,-44.0069415
Rua Vicente Guimarães ,2450.0,4,2045000.0,4,230, Belvedere, Belo Horizonte ,-19.972718,-43.9421328
Rua Rio Grande do Sul ,,3,1850000.0,3,143, Santo Agostinho, Belo Horizonte ,-19.9227162,-43.946463
"Avenida Coronel José Dias Bicalho, 516 ",300.0,1,600000.0,3,110, São Luíz, Belo Horizonte ,-19.8590713,-43.9656056
Rua Laranjal ,650.0,2,650000.0,3,64, Anchieta, Belo Horizonte ,-19.9471532,-43.9304352
"Rua Rio de Janeiro, 1270 ",400.0,1,550000.0,1,46, Lourdes, Belo Horizonte ,-19.9150685,-43.9375314
"Rua Maria do Carmo, 40 ",,--,,2,48-75, Santa Cruz, Belo Horizonte ,-19.9918978,-44.0124253
Rua Mansueto Filizzola ,,1,390000.0,3,155, Santa Amélia, Belo Horizonte ,-19.8401198,-43.9769328
Rua Orlando Moretzsohn ,250.0,1,280000.0,2,70, Buritis, Belo Horizonte ,-19.9728976,-43.9748499
Rua Tomé de Souza ,690.0,1,980000.0,1,44, Savassi, Belo Horizonte ,-19.9388244,-43.9274451
Rua Espírito Santo ,1850.0,3,1920000.0,4,162, Lourdes, Belo Horizonte ,-18.8647762,-41.1217768
"Rua Rio de Janeiro, 1599 ",669.0,1,570000.0,2,70, Lourdes, Belo Horizonte ,-19.9150685,-43.9375314
Rua Gonçalves Dias ,500.0,2,808500.0,2,62, Lourdes, Belo Horizonte ,-19.9311846,-43.9376407
"Rua Alva, 200 ",,1,177990.0,2,41-44, Xodó Marize, Belo Horizonte ,-19.8185453,-43.9389788
"Rua Espírito Santo, 2183 ",2600.0,5,3650000.0,4,431, Lourdes, Belo Horizonte ,-18.8647762,-41.1217768
"Rua Tomaz Gonzaga, 444 ",3600.0,4,5500000.0,4,410, Lourdes, Belo Horizonte ,-19.9329322,-43.9411068
"Rua Albertino Teixeira Dias, 331 ",,--,,2,46-47, Santa Helena, Belo Horizonte ,-19.9927642,-44.0152809
Rua Oliveira ,600.0,2,550000.0,4,140, Cruzeiro, Belo Horizonte ,-19.9209465,-43.984636
"Avenida Francisco Sales, 1830 ",300.0,1,360000.0,2,80, Floresta, Belo Horizonte ,-19.9221979,-43.927814
"Rua Domingos Vieira, 319 ",,--,165000.0,--,25, Santa Efigênia, Belo Horizonte ,-19.9229036,-43.9230934
"Avenida do Contorno, 5005 ",730.0,1,480000.0,2,60, Funcionários, Belo Horizonte ,-19.9156428,-43.9453796
"Rua Senhora do Porto, 1500 ",280.0,1,219000.0,2,46, Palmeiras, Belo Horizonte ,-19.9683909,-43.9842281
"Rua Ubá, 351 ",1000.0,1,630000.0,3,110, Colégio Batista, Belo Horizonte ,-19.9102519,-43.9356369
"Rua Um, 50 ",,1,176990.0,2,41-44, Amazonas, Contagem ,-19.785545,-43.975491
"Rua da Bahia, 996 ",280.0,--,290000.0,2,75, Centro, Belo Horizonte ,-19.9151776,-43.9347647
Rua Porto Carrero ,850.0,2,650000.0,4,140, Gutierrez, Belo Horizonte ,-19.9435341,-43.9589666
"Rua Maranhão, 1418 ",2860.0,4,3890000.0,4,278, Funcionários, Belo Horizonte ,-19.9265829,-43.9240941
Rua Carangola ,2025.0,2,5200.0,4,148, Santo Antônio, Belo Horizonte ,-19.9444674,-43.9428747
"Rua Venezuela, 574 ",880.0,3,999000.0,3,195, Sion, Belo Horizonte ,-19.953459,-43.9369995
"Rua Rio de Janeiro, 1186 ",550.0,1,640000.0,2,150, Centro, Belo Horizonte ,-19.9150685,-43.9375314
"Rua Quatro, 16251 ",,--,168480.0,2,46-50, Maria Tereza, Belo Horizonte ,-19.8641199,-43.9073247
"Rua São Gonçalo do Abaeté, 19 ",,1,390000.0,2,53, Santa Branca, Belo Horizonte ,-19.8394322,-43.9702004
Rua Barão de Lucena ,,3,1722200.0,4,224, Serra, Belo Horizonte ,-19.9336802,-43.9221987
"Avenida Raja Gabaglia, 1010 ",,--,175000.0,2,99, Estoril, Belo Horizonte ,-19.9364152,-43.9533964
"Rua Monte Santo, 160 ",353.0,1,250000.0,3,75, Carlos Prates, Belo Horizonte ,-19.9095009,-43.9647001
Rua Rio de Janeiro ,,4,5500000.0,4,426, Lourdes, Belo Horizonte ,-19.9150685,-43.9375314
"Rua Padre Francisco Juarez, 355 ",,1,168490.0,2,38-41, Perobas, Contagem ,-19.9155797,-44.065226
"Rua Jovina Gomes de Souza, 948 ",,--,101557.0,2,68, Letícia, Belo Horizonte ,-19.8088564,-43.9777737
Rua Passa Tempo ,1508.0,4,1890000.0,4,144, Carmo, Belo Horizonte ,-19.9458256,-43.9307955
Rua Santa Rita Durão ,685.0,2,1350000.0,3,95, Funcionários, Belo Horizonte ,-19.9344756,-43.9346452
Rua Boaventura Costa ,250.0,3,460000.0,3,85, Barreiro, Belo Horizonte ,-19.9740024,-44.022471
"Rua Rita Camargos, 351 ",,1,161900.0,2,44, Bom Jesus, Contagem ,-19.8391333,-44.0329823
Rua Níquel ,1.0,4,2198000.0,4,406, Serra, Belo Horizonte ,-19.9410888,-43.9171343
"Avenida Senador Levindo Coelho, 1267 ",,1-2,,2,44-84, Vale do Jatoba Barreiro, Belo Horizonte ,-20.0116178,-44.0331311
Rua Castelo Serpa ,480.0,2,560000.0,3,97, Castelo, Belo Horizonte ,-19.8818848,-44.0028115
"Rua Amílcar Vianna Martins, 150 ",600.0,8,3500000.0,4,440, Buritis, Belo Horizonte ,-19.9846791,-43.9691247
Rua Fausto Nunes Vieira ,3067.0,4,3190000.0,2,247, Belvedere, Belo Horizonte ,-19.9732179,-43.9362799
Rua Pouso Alegre ,300.0,1,310000.0,2,54, Santa Tereza, Belo Horizonte ,-19.9121319,-43.9296778
Rua Matipó ,800.0,2,580000.0,4,153, Santo Antônio, Belo Horizonte ,-19.9473515,-43.9434703
"Avenida Marte, 40 ",,2,,2-3,52-73, Jardim Riacho das Pedras, Contagem ,-19.9708397,-44.0614625
"Rua Cristina, 1261 ",,2,394000.0,1,17, Santo Antônio, Belo Horizonte ,-19.9472539,-43.9352691
"Rua Professor Euclydes Ferreira, 359 ",255.0,3,650000.0,3,173, Buritis, Belo Horizonte ,-19.9701337,-43.972571
Rua Ouro Preto ,1680.0,3,2350000.0,4,210, Santo Agostinho, Belo Horizonte ,-19.9190479,-43.949625
Rua Tamboril ,,--,560000.0,--,440, Renascença, Belo Horizonte ,-19.8319147,-43.9217895
Rua General Dionísio Cerqueira ,,3,1390000.0,3,243, Gutierrez, Belo Horizonte ,-19.9347654,-43.9608311
"Avenida Denise Cristina da Rocha, 612 ",,1,154490.0,2,38, Centro, Ribeirão das Neves ,-19.802935,-43.9986345
Rua Santa Catarina ,2641.0,5,4320000.0,4,574, Lourdes, Belo Horizonte ,-19.9232479,-43.9438549
"Rua Úrsula Paulino, 1321 ",390.0,1,369000.0,2,55, Betânia, Belo Horizonte ,-19.9669908,-43.9920275
Rua Gustavo Ladeira ,670.0,2,550000.0,3,132, Paquetá, Belo Horizonte ,-19.8798769,-43.9917158
Rua São Paulo ,2600.0,4,3800000.0,4,305, Lourdes, Belo Horizonte ,-19.914782,-43.9388011
Rua Humberto Rosa Teixeira ,10.0,2,950000.0,4,327, Santa Amélia, Belo Horizonte ,-19.8359763,-43.97299
"Rua Princesa Isabel, 190 ",,1,146690.0,2,41-47, Chacaras Del Rey Sao Benedito, Santa Luzia ,-19.883784,-43.9351449
"Rua Professor Estevão Pinto, 1494 ",2100.0,2,1850000.0,4,300, Serra, Belo Horizonte ,-19.9354541,-43.9252254
Rua Viçosa ,,2,680000.0,4,120, São Pedro, Belo Horizonte ,-19.9426291,-43.93817
"Avenida Professor Mário Werneck, 2990 ",575.0,2,480000.0,4,110, Buritis, Belo Horizonte ,-19.9758245,-43.9684461
Rua Ramalho Ortigão ,150.0,2,275000.0,2,43, Santa Branca, Belo Horizonte ,-19.8327541,-43.9664751
Rua Desembargador Jorge Fontana ,1500.0,2,730000.0,3,101, Belvedere, Belo Horizonte ,-19.9742039,-43.9395163
"Rua Santa Fé, 61 ",1100.0,3,1150000.0,4,138, Sion, Belo Horizonte ,-19.9063807,-43.9684112
Rua José Fernandes dos Reis ,,1,225000.0,2,48, Santa Mônica, Belo Horizonte ,-19.825318,-43.974998
Rua Desembargador Paulo Mota ,343.0,1,360000.0,3,101, Ouro Preto, Belo Horizonte ,-19.884957,-43.9827668
Avenida Otacílio Negrão de Lima ,,8,3800000.0,3,454, Pampulha, Belo Horizonte ,-19.8609803,-43.9768403
Rua Pedra do Rio ,,2,320000.0,3,93, Rio Branco, Belo Horizonte ,-19.8118336,-43.9873492
"Rua Dona Geni, 0 ",,2,155000.0,2,50, Maria Helena, Belo Horizonte ,-19.8030255,-43.9968062
Rua Curitiba ,2000.0,3,2295000.0,4,164, Lourdes, Belo Horizonte ,-19.9122312,-43.9396634
"Rua Quatro, 98 ",,1,156690.0,2,39, Granja Verde, Betim ,-19.8641199,-43.9073247
Rua Cônego Rocha Franco ,700.0,2,780000.0,3,90, Gutierrez, Belo Horizonte ,-19.9354579,-43.954094
"Rua André Cavalcanti, 0 ",1900.0,4,3290000.0,4,288, Gutierrez, Belo Horizonte ,-19.9319115,-43.9611283
Avenida Olegário Maciel ,2800.0,3,3250000.0,4,460, Lourdes, Belo Horizonte ,-19.9159707,-43.9433531
Rua Vicente Risola ,380.0,2,870000.0,3,168, Santa Inês, Belo Horizonte ,-19.8910177,-43.9084895
"Rua dos Aimorés, 131 ",850.0,1,1050000.0,4,200, Funcionários, Belo Horizonte ,-19.9245137,-43.9538877
"Estrada de Areias, 221 ",,--,,--,250-1020, Esperanca Justinopolis, Ribeirão das Neves ,-19.765255,-44.0047072
"Rua Alessandra Salum Cadar, 801 ",420.0,2,410000.0,3,97, Buritis, Belo Horizonte ,-19.9760471,-43.9703167
Rua Ouro Preto ,1450.0,2,1200000.0,3,103, Santo Agostinho, Belo Horizonte ,-19.9190479,-43.949625
"Rua Hélia Ricaldoni de Freitas, 1 ",,4,950000.0,4,360, Serrano, Belo Horizonte ,-19.8782924,-44.0104344
Rua Paulista ,,2,680000.0,3,114, Fernão Dias, Belo Horizonte ,-19.8670029,-43.9174447
"Avenida Diamante, 850 ",,1,162490.0,2,41-48, Sapucaia II, Contagem ,-19.8888513,-44.1113698
Rua Fernando França Campos ,,6,2950000.0,5,724, São Bento, Belo Horizonte ,-19.6395182,-43.9076344
Rua Stela de Souza ,430.0,3,890000.0,3,220, Sagrada Família, Belo Horizonte ,-19.9038754,-43.9301764
"Rua Gentil Portugal do Brasil, 55 ",380.0,--,250000.0,3,65, Camargos, Belo Horizonte ,-19.935738,-44.0215529
"Rua Engenheiro Alberto Pontes, 460 ",1365.0,4,6000.0,4,280, Buritis, Belo Horizonte ,-19.9689271,-43.9668895
"Avenida Presidente Tancredo Neves, 3000 ",900.0,2,890000.0,4,121, Castelo, Belo Horizonte ,-19.9043738,-43.9876431
Rua João Carlos ,300.0,2,510000.0,3,115, Sagrada Família, Belo Horizonte ,-19.9034255,-43.9202773
"Rua Lauro Sodré Nogueira, 302 ",,1,149900.0,2,43, São Pedro, Ribeirão das Neves ,-19.7685583,-44.0923158
"Avenida João Rolla Filho, 174 ",205.0,1,185000.0,2,52, Diamante, Belo Horizonte ,-19.9936702,-44.0233547
Rua Guilherme de Almeida ,760.0,1,450000.0,3,110, Santo Antônio, Belo Horizonte ,-19.9482786,-43.9476553
"Rua Bambuí, 729 ",1100.0,2,850000.0,3,137, Cruzeiro, Belo Horizonte ,-19.9521977,-43.9262572
"Rua Raimunda Simões da Silva, 83 ",330.0,2,350000.0,3,76, Castelo, Belo Horizonte ,-19.8969034,-43.9967754
Rua Maria Fortunata Rothéia ,490.0,6,3590000.0,5,440, Serra, Belo Horizonte ,-19.8871877,-43.9908263
"Rua Senhora do Porto, 1330 ",300.0,1,269000.0,2,48, Palmeiras, Belo Horizonte ,-19.9683909,-43.9842281
"Rua João Neiva, 618 ",,2,350000.0,4,290, Boa Vista, Belo Horizonte ,-19.8942677,-43.891655
"Alameda de Rondon, 166 ",,1,144490.0,2,41-47, Lundcea, Lagoa Santa ,-19.6333681,-43.9145949
Rua Desembargador Jorge Fontana ,2000.0,3,1350000.0,4,135, Belvedere, Belo Horizonte ,-19.9742039,-43.9395163
Avenida Antônio Francisco Lisboa ,,10,5900000.0,5,639, Bandeirantes, Belo Horizonte ,-19.8562076,-44.0027334
"Rua São Paulo, 2189 ",2000.0,2,2700000.0,4,215, Lourdes, Belo Horizonte ,-19.914782,-43.9388011
"Rua Pinto Alves, 1311 ",,1,149000.0,2-3,47-67, Centro, Lagoa Santa ,-19.6251064,-43.8929678
Rua Dom João Antônio dos Santos ,400.0,2,650000.0,5,240, Coração Eucarístico, Belo Horizonte ,-19.9206452,-43.9879917
Rua dos Expedicionários ,,1,339999.0,2,100, Santa Amélia, Belo Horizonte ,-20.2252407,-44.3977797
Rua Itambé do Mato Dentro ,150.0,1,430000.0,3,110, Castelo, Belo Horizonte ,-19.8771705,-44.0085993
Rua Stella Hanriot ,1300.0,3,1350000.0,4,141, Buritis, Belo Horizonte ,-19.9715766,-43.9715633
"Rua Califórnia, 858 ",1250.0,1,640000.0,3,90, Sion, Belo Horizonte ,-19.9530435,-43.9341217
Rodovia BR,,--,,--,20000,040, Km 480 ,-23.0724646,-46.9852627
"Avenida Alfredo Camarate, 539 ",,2,585000.0,--,65, São Luíz, Belo Horizonte ,-19.8700668,-43.9761766
Rua Castelo Branco ,,1,290000.0,2,68, Santa Terezinha, Belo Horizonte ,-19.86982,-44.0035326
Rua Alves do Vale ,750.0,2,790000.0,2,68, Luxemburgo, Belo Horizonte ,-19.9470605,-43.952024
Rua Maranhão ,250.0,1,1950.0,3,90, Funcionários, Belo Horizonte ,-19.9265829,-43.9240941
Rua Carlos Turner ,382.0,1,360000.0,3,80, Silveira, Belo Horizonte ,-19.8901846,-43.9306667
"Rua Albert Sabin, 761 ",,1,,2,45, Quintino, Divinópolis ,-19.8908865,-43.9930003
Rua Ministro Hermenegildo de Barros ,,4,800000.0,3,220, Itapoã, Belo Horizonte ,-19.8396132,-43.9613263
Avenida Francisco Sales ,527.0,--,260000.0,2,72, Floresta, Belo Horizonte ,-19.9221979,-43.927814
Rua Henrique Sales ,,1,655000.0,3,100, Luxemburgo, Belo Horizonte ,-19.9436744,-43.9549034
"Rua Bernardo Guimarães, 3115 ",,2,887000.0,3,86, Barro Preto, Belo Horizonte ,-19.927333,-43.9477878
"Rua Cláudio Manoel, 632 ",1037.0,2,800000.0,2,68, Funcionários, Belo Horizonte ,-19.9335821,-43.9329926
"Rua Albânia, 0 ",,--,130000.0,--,270, Europa, Belo Horizonte ,-19.8017402,-43.9656919
"Rua Desembargador Jorge Fontana, 610 ",3480.0,5,6000000.0,4,465, Belvedere, Belo Horizonte ,-19.9742039,-43.9395163
"Rua Professora Bartira Mourão, 177 ",,2,480000.0,2,54, Buritis, Belo Horizonte ,-19.9691439,-43.9679544
Rua Ramalho Ortigão ,150.0,2,429000.0,2,60, Santa Branca, Belo Horizonte ,-19.8327541,-43.9664751
Rua Santa Fé ,1200.0,3,1150000.0,3,140, Sion, Belo Horizonte ,-19.9063807,-43.9684112
Rua Teixeira de Freitas ,600.0,1,495000.0,3,120, Santo Antônio, Belo Horizonte ,-19.9473451,-43.9478337
Rua Peperi ,350.0,2,580000.0,3,82, Nova Granada, Belo Horizonte ,-19.94046,-43.9683561
Rua João Luiz Pereira ,,3,600000.0,3,137, São João Batista, Belo Horizonte ,-19.8262781,-43.9654164
"Rua Assunção, 515 ",550.0,1,650000.0,3,100, Sion, Belo Horizonte ,-19.9539031,-43.9378663
"Rua Ouro Preto, 1274 ",800.0,3,1980000.0,4,133, Santo Agostinho, Belo Horizonte ,-19.9190479,-43.949625
Rua Itacoatiara ,130.0,1,225000.0,2,86, Sagrada Família, Belo Horizonte ,-19.899004,-43.9220627
Rua Guaranésia ,320.0,1,350000.0,2,72, Colégio Batista, Belo Horizonte ,-19.9066945,-43.9344052
"Rua Vander Rodrigues de Lima, 65 ",637.0,2,340000.0,3,94, Caiçaras, Belo Horizonte ,-19.9024129,-43.9800046
Avenida Raja Gabaglia ,,1,232890.0,--,98, Cidade Jardim, Belo Horizonte ,-19.9364152,-43.9533964
"Rua São João do Paraíso, 297 ",450.0,2,595000.0,3,96, Sion, Belo Horizonte ,-19.9547445,-43.9334083
Rua do Ouro ,750.0,1,450000.0,3,90, Serra, Belo Horizonte ,-19.947074,-43.9186245
"Rua Engenheiro Alberto Pontes, 434 ",700.0,2,578900.0,4,96, Buritis, Belo Horizonte ,-19.9689271,-43.9668895
"Rua Marco Aurélio de Miranda, 115 ",461.0,2,690000.0,3,190, Buritis, Belo Horizonte ,-19.9739157,-43.9678046
"Rua Pastor Mamélio Ferreira, 147 ",308.0,1,260000.0,3,62, Camargos, Belo Horizonte ,-19.9356553,-44.0205661
Rua Henrique Furtado Portugal ,980.0,3,780000.0,4,120, Buritis, Belo Horizonte ,-19.9722454,-43.9667316
Rua Abílio Machado ,,2,795000.0,3,286, Sagrada Família, Belo Horizonte ,-19.9027141,-43.9215636
"Rua Tenente Brito Melo, 1215 ",,4,2200000.0,--,272, Barro Preto, Belo Horizonte ,-19.9180943,-43.9534818
"Rua Rodrigo Otávio Coutinho, 0 ",2200.0,4,2290000.0,4,183, Belvedere, Belo Horizonte ,-19.9767965,-43.9422612
Rua Professor Baroni ,1400.0,4,1499000.0,4,240, Gutierrez, Belo Horizonte ,-19.9430178,-43.9567038
"Rua Bambuí, 25 ",3300.0,4,3700000.0,4,280, Serra, Belo Horizonte ,-19.9521977,-43.9262572
Rua Engenheiro Walter Kurrle ,1.0,3,1790000.0,3,176, Belvedere, Belo Horizonte ,-19.9777773,-43.9433639
"Rua Liliana Velloso Melo, 120 ",,1,318800.0,2,97, Casa Branca, Belo Horizonte ,-19.8932081,-43.8872585
Rua Sagres ,400.0,2,830000.0,4,101, Prado, Belo Horizonte ,-19.9287129,-43.9696491
Avenida Alphonsus de Guimarães ,220.0,2,415000.0,3,74, Santa Efigênia, Belo Horizonte ,-19.9160502,-43.908978
Rua Cata Preta ,,4,849000.0,3,298, João Pinheiro, Belo Horizonte ,-19.932214,-43.9986254
"Rua Desembargador Penna, 191 ",,4,2990000.0,4,378, Belvedere, Belo Horizonte ,-19.9616905,-43.9394295
Rua Ondina Pedrosa Nahas ,,3,650000.0,3,120, Serrano, Belo Horizonte ,-19.8789385,-44.0102651
Rua Cônsul Robert Levy ,,8,2350000.0,6,574, São Bento, Belo Horizonte ,-19.9559084,-43.9529219
Rua da Bahia ,3000.0,4,5900000.0,4,311, Lourdes, Belo Horizonte ,-19.9151776,-43.9347647
"Rua Fernandes Tourinho, 880 ",1670.0,2,1790000.0,3,105, Lourdes, Belo Horizonte ,-19.9393917,-43.9358894
Rua São Mateus ,230.0,1,230000.0,3,57, Sagrada Família, Belo Horizonte ,-19.9995382,-44.01046
Rua Canadá ,750.0,2,850000.0,3,90, Carmo, Belo Horizonte ,-19.9489491,-43.9324084
Rua Santa Rita do Itueto ,10.0,4,499000.0,4,264, Jardim Leblon, Belo Horizonte ,-19.8281164,-43.9866984
Rua Dom Oscar Romero ,510.0,1,230000.0,3,85, Nova Gameleira, Belo Horizonte ,-19.9385354,-43.9916171
Rua Desembargador Jorge Fontana ,1800.0,2,4500.0,4,165, Belvedere, Belo Horizonte ,-19.9742039,-43.9395163
"Rua da Bahia, 1454 ",,--,5500000.0,--,1250, Lourdes, Belo Horizonte ,-19.9151776,-43.9347647
Rua Adauto Lúcio Cardoso ,,5,3480000.0,4,406, Belvedere, Belo Horizonte ,-18.763547,-44.4244838
"Rua Frei Luiz de Souza, 135 ",190.0,2,455000.0,2,112, João Pinheiro, Belo Horizonte ,-19.9295132,-44.0003802
Rua Contria ,180.0,1,300000.0,3,102, Prado, Belo Horizonte ,-19.9288646,-43.9703277
Rua Mar de Espanha ,1300.0,2,550000.0,3,100, Santo Antônio, Belo Horizonte ,-19.945938,-43.9437624
"Rua Elson Nunes de Souza, 554 ",410.0,3,631300.0,3,146, Castelo, Belo Horizonte ,-19.889424,-43.9943234
"Rua Montes Claros, 1217 ",550.0,2,1272600.0,3,114, Cruzeiro, Belo Horizonte ,-19.9434371,-43.9342094
"Rua Newton, 336 ",,--,790000.0,--,396, Santa Lúcia, Belo Horizonte ,-19.9581363,-43.948243
Rua Porto Rico ,,4,1100000.0,4,256, Itapoã, Belo Horizonte ,-19.8424928,-43.9593978
Rua Antônio Aleixo ,1911.0,2,1440000.0,3,154, Lourdes, Belo Horizonte ,-19.9328187,-43.9465711
Rua Ouro Preto ,3500.0,4,4300000.0,4,375, Santo Agostinho, Belo Horizonte ,-19.9190479,-43.949625
"Avenida Augusto de Lima, 444 ",500.0,1,550000.0,3,105, Centro, Belo Horizonte ,-19.9230616,-43.9441556
Avenida do Contorno ,1500.0,1,190000.0,1,28, Lourdes, Belo Horizonte ,-19.9156428,-43.9453796
"Rua dos Timbiras, 2500 ",826.0,--,280000.0,2,70, Santo Agostinho, Belo Horizonte ,-19.9302789,-43.9251047
"Avenida Santos Dumont, 304 ",,20,11790000.0,50,3089, Centro, Belo Horizonte ,-19.9149428,-43.941059
"Rua Panamá, 115 ",540.0,1,528000.0,3,144, Sion, Belo Horizonte ,-19.9550843,-43.9398499
"Rua Bernardo Guimarães, 310 ",2000.0,4,3100000.0,4,197, Funcionários, Belo Horizonte ,-19.927333,-43.9477878
Rua França ,,1,200000.0,2,75, Parque Leblon, Belo Horizonte ,-19.9454281,-43.9709884
Avenida Francisco Negrão de Lima ,,2,299999.0,3,180, Céu Azul, Belo Horizonte ,-19.8288663,-43.9972386
"Rua Piauí, 1052 ",640.0,2,960000.0,2,70, Funcionários, Belo Horizonte ,-19.9385064,-43.9287698
Avenida Professor Mário Werneck ,530.0,5,2990000.0,4,460, Buritis, Belo Horizonte ,-19.9758245,-43.9684461
Rua Santa Rita do Itueto ,,1,175000.0,2,56, Jardim Leblon, Belo Horizonte ,-19.8281164,-43.9866984
"Rua Rádio, 180 ",800.0,3,649000.0,3,84, São Lucas, Belo Horizonte ,-19.933145,-43.9191379
Rua Itajubá ,330.0,1,430000.0,3,92, Sagrada Família, Belo Horizonte ,-19.9111658,-43.9295436
"Avenida Afonso Pena, 578 ",,--,1200.0,--,96, Centro, Belo Horizonte ,-19.9469331,-43.9212512
"Avenida Paulo Camilo Pena, 1 ",2568.0,3,2060000.0,4,190, Belvedere, Belo Horizonte ,-19.9676329,-43.9429816
Rua Rio Grande do Norte ,,--,1300.0,--,50, Savassi, Belo Horizonte ,-19.9302239,-43.9306127
Rua Alzira Maria Ferreira ,10.0,3,1490000.0,4,355, Santa Mônica, Belo Horizonte ,-19.8266076,-43.9784995
"Rua Doutor Pedro Ruela, 77 ",,2,380000.0,3,100, Letícia, Belo Horizonte ,-19.8060919,-43.9767256
Avenida Brasil ,,4,3136157.0,--,235, Savassi, Belo Horizonte ,-19.9290274,-43.9305101
"Rua Padre Severino, 0 ",700.0,2,1350000.0,1,114, São Pedro, Belo Horizonte ,-19.9453134,-43.9364757
Rua Olinto Magalhães ,250.0,2,370000.0,3,100, Padre Eustáquio, Belo Horizonte ,-19.9130557,-43.9916439
Rua Saide Haddad Antônio ,1.0,2,575000.0,3,180, Santa Amélia, Belo Horizonte ,-19.8392527,-43.9843107
"Rua Espírito Santo, 1171 ",,1,453000.0,2,50, Centro, Belo Horizonte ,-18.8647762,-41.1217768
Rua Rio de Janeiro ,550.0,1,640000.0,2,150, Centro, Belo Horizonte ,-19.9150685,-43.9375314
"Rua Antônio Aleixo, 634 ",4400.0,4,3800000.0,4,460, Lourdes, Belo Horizonte ,-19.9328187,-43.9465711
"Rua Paracatu, 1378 ",,4,2650000.0,4,178, Santo Agostinho, Belo Horizonte ,-19.9198913,-43.9512169
Rua Edith Barbosa Rocha ,100.0,1,290000.0,3,99, Venda Nova, Belo Horizonte ,-19.7977103,-43.9753648
Avenida do Contorno ,,1,170000.0,1,27, Lourdes, Belo Horizonte ,-19.9156428,-43.9453796
Rua Santo Antônio do Monte ,485.0,2,636000.0,2,130, Santo Antônio, Belo Horizonte ,-19.9472748,-43.9410432
"Rua Ema Stersa, 0 ",,--,700000.0,--,600, Letícia, Belo Horizonte ,-19.806049,-43.9738046
"Rua Santíssimo, 40 ",600.0,2,490000.0,3,100, Alto dos Caiçaras, Belo Horizonte ,-19.901892,-43.9735209
"Rua José Teófilo Marques, 10 ",200.0,--,200000.0,1,45, Buritis, Belo Horizonte ,-19.9744554,-43.9776988
Rua São Paulo ,1032.0,2,1200000.0,3,95, Lourdes, Belo Horizonte ,-19.914782,-43.9388011
"Rua Martim de Carvalho, 240 ",1000.0,2,1250000.0,4,254, Santo Agostinho, Belo Horizonte ,-19.9311733,-43.9479411
"Rua da Bahia, 2569 ",1321.0,2,2300000.0,2,243, Lourdes, Belo Horizonte ,-19.9151776,-43.9347647
Rua Geraldo Moreira dos Santos ,,2,360000.0,3,150, Céu Azul, Belo Horizonte ,-19.8230918,-44.0081338
Rua Capitão Procópio ,300.0,3,530000.0,4,115, Santa Tereza, Belo Horizonte ,-19.9173798,-43.9201882
"Rua Benjamim Jacob, 397 ",1850.0,4,1700000.0,4,280, Gutierrez, Belo Horizonte ,-19.9400181,-43.9625037
Rua Pedra Lavrada ,,1,239000.0,2,51, São Gabriel, Belo Horizonte ,-19.8490873,-43.9124684
Rua Elson Nunes de Souza ,200.0,1,420000.0,3,146, Castelo, Belo Horizonte ,-19.889424,-43.9943234
"Rua Iracy Manata, 160 ",540.0,2,850000.0,3,190, Buritis, Belo Horizonte ,-19.9671697,-43.9701124
Rua Califórnia ,1000.0,2,700000.0,3,100, Sion, Belo Horizonte ,-19.9530435,-43.9341217
"Rua Bernardo Guimarães, 1020 ",800.0,2,750000.0,3,100, Funcionários, Belo Horizonte ,-19.927333,-43.9477878
Rua Machado ,390.0,1,329000.0,3,58, Floresta, Belo Horizonte ,-19.9075288,-43.9336234
Rua Cônsul Walter ,288.0,2,520000.0,3,85, Buritis, Belo Horizonte ,-19.9745736,-43.9696865
"Rua Professor Carlos Pereira da Silva, 92 ",1.0,6,3250000.0,4,584, Belvedere, Belo Horizonte ,-19.968435,-43.9420157
"Rua Sebastião Fabiano Dias, 233 ",,--,1390000.0,3,210, Belvedere, Belo Horizonte ,-19.9763098,-43.9441586
Rua La Plata ,,2,1346000.0,3,173, Sion, Belo Horizonte ,-19.9542202,-43.9328012
Rua Iraí ,500.0,2,2700.0,2,66, Cidade Jardim, Belo Horizonte ,-19.9463585,-43.9507721
Avenida Deputado Anuar Menhen ,,1,180000.0,3,64, Santa Amélia, Belo Horizonte ,-19.8298106,-43.9717578
Rua Doutor José Olímpio Borges ,400.0,2,460000.0,3,72, São Lucas, Belo Horizonte ,-19.9286134,-43.9146488
"Rua Muzambinho, 272 ",800.0,3,980000.0,4,204, Cruzeiro, Belo Horizonte ,-19.94661,-43.923608
"Rua Antônio Aleixo, 82 ",2105.0,3,2300000.0,4,334, Lourdes, Belo Horizonte ,-19.9328187,-43.9465711
"Rua Matipó, 137 ",820.0,2,645000.0,4,165, Santo Antônio, Belo Horizonte ,-19.9473515,-43.9434703
Rua Tomé de Souza ,1000.0,4,1450000.0,4,200, Savassi, Belo Horizonte ,-19.9388244,-43.9274451
"Rua Senhora do Porto, 1330 ",350.0,2,379000.0,3,68, Palmeiras, Belo Horizonte ,-19.9683909,-43.9842281
Rua Joaquim Campolina Diniz ,,3,695000.0,4,124, Jardim Leblon, Belo Horizonte ,-19.821138,-43.9873304
Avenida Miguel Perrela ,500.0,1,520000.0,2,70, Castelo, Belo Horizonte ,-19.8819312,-43.999487
Rua Felipe dos Santos ,2886.0,4,3600000.0,4,350, Lourdes, Belo Horizonte ,-19.9342841,-43.9462997
"Rua Paulo Afonso, 969 ",400.0,2,629000.0,2,62, Santo Antônio, Belo Horizonte ,-19.9468549,-43.9460463
Rua José Wanderley Lara ,,4,1590000.0,4,290, Dona Clara, Belo Horizonte ,-19.8602701,-43.9422449
Rua Araguari ,2365.0,4,2940000.0,4,270, Santo Agostinho, Belo Horizonte ,-19.9304083,-43.9514156
Rua Oscar Trompowsky ,280.0,1,350000.0,3,95, Grajaú, Belo Horizonte ,-19.9364995,-43.9613222
Rua Amoras ,732.0,1,690000.0,3,167, Santa Efigênia, Belo Horizonte ,-19.9227288,-43.9136014
Rua Tabelião Ferreira de Carvalho ,280.0,1,380000.0,3,85, Cidade Nova, Belo Horizonte ,-19.8869404,-43.9290733
"Rua Doutor Orestes Diniz, 191 ",300.0,1,299900.0,3,100, Nova Suíssa, Belo Horizonte ,-19.9373106,-43.9803224
"Rua Sebastião Fabiano Dias, 233 ",1500.0,2,970000.0,3,101, Belvedere, Belo Horizonte ,-19.9763098,-43.9441586
"Rua Rosa Zandona, 194 ",,1,260000.0,2,61, Venda Nova, Belo Horizonte ,-19.8141271,-43.9642957
"Rua Clementino Viana Dotti, 193 ",350.0,2,636000.0,4,120, Buritis, Belo Horizonte ,-19.9729996,-43.968041
"Rua Professor Magalhães Drumond, 144 ",425.0,1,550000.0,3,115, Santo Antônio, Belo Horizonte ,-19.939075,-43.9428019
Rua Machado Nunes ,175.0,1,210000.0,2,48, Salgado Filho, Belo Horizonte ,-19.90054,-43.9700939
"Rua Montes Claros, 429 ",375.0,2,990000.0,3,140, Anchieta, Belo Horizonte ,-19.9434371,-43.9342094
"Rua Desembargador Paulo Mota, 134 ",,5,998000.0,5,260, Ouro Preto, Belo Horizonte ,-19.884957,-43.9827668
"Avenida Augusto de Lima, 444 ",427.0,--,420000.0,3,88, Centro, Belo Horizonte ,-19.9230616,-43.9441556
"Rua Maria Fortunata Rothéia, 2640 ",,--,280000.0,--,28, Castelo, Belo Horizonte ,-19.8871877,-43.9908263
Rua dos Zapotecas ,,1,269000.0,3,70, Santa Mônica, Belo Horizonte ,-19.8297784,-43.9768455
Rua Gonçalves Dias ,1343.0,2,1460000.0,4,152, Lourdes, Belo Horizonte ,-19.9311846,-43.9376407
"Avenida Augusto de Lima, 1121 ",,--,320000.0,2,80, Centro, Belo Horizonte ,-19.9230616,-43.9441556
Avenida do Contorno ,400.0,1,530000.0,4,140, Funcionários, Belo Horizonte ,-19.9156428,-43.9453796
Rua Carlos Alves ,260.0,1,340000.0,3,77, São José, Belo Horizonte ,-19.8580413,-43.9625625
Rua dos Aeroviários ,320.0,2,420000.0,3,67, Pampulha, Belo Horizonte ,-19.8586579,-43.9548531
Rua José Carvalho Monteiro ,,1,301122.0,4,130, Pirajá, Belo Horizonte ,-19.8691406,-43.9182656
Rua Felipe dos Santos ,1500.0,2,1850000.0,4,450, Lourdes, Belo Horizonte ,-19.9342841,-43.9462997
Rua Conselheiro Lafaiete ,,1,550000.0,3,87, Sagrada Família, Belo Horizonte ,-19.9114276,-43.925375
Rua Itacaiunas ,,3,2250000.0,4,328, Buritis, Belo Horizonte ,-19.9765215,-43.9615408
Rua Salinas ,540.0,2,690000.0,2,120, Floresta, Belo Horizonte ,-19.91359,-43.9138661
"Avenida Álvares Cabral, 340 ",558.0,--,360000.0,2,95, Lourdes, Belo Horizonte ,-19.9244866,-43.9354151
Rua Gustavo Ladeira ,350.0,1,298000.0,2,57, Castelo, Belo Horizonte ,-19.8798769,-43.9917158
"Rua La Plata, 205 ",650.0,2,1490000.0,4,138, Sion, Belo Horizonte ,-19.9542202,-43.9328012
Rua Cordilheiras ,,2,690000.0,3,242, Serrano, Belo Horizonte ,-19.8889461,-44.0094623
"Rua dos Guajajaras, 1976 ",,1,687330.0,2,118, Barro Preto, Belo Horizonte ,-19.9261909,-43.93638
"Rua Maranhão, 0 ",4000.0,6,11000000.0,5,650, Funcionários, Belo Horizonte ,-19.9265829,-43.9240941
"Rua Rio de Janeiro, 909 ",627.0,1,490000.0,3,136, Centro, Belo Horizonte ,-19.9150685,-43.9375314
Rua Roquete Mendonça ,,--,980000.0,--,360, São José, Belo Horizonte ,-19.8609099,-43.9688852
Rua Francisco da Veiga ,220.0,1,235000.0,2,68, Monsenhor Messias, Belo Horizonte ,-19.9094963,-43.9773677
"Rua Alcântara, 206 ",400.0,2,3500.0,2,65, Nova Granada, Belo Horizonte ,-19.9374107,-43.9712444
"Rua dos Guajajaras, 329 ",460.0,--,390000.0,3,80, Lourdes, Belo Horizonte ,-19.9261909,-43.93638
Rua Rádio ,,2,694300.0,3,84, São Lucas, Belo Horizonte ,-19.933145,-43.9191379
"Rua Juvenal Melo Senra, 312 ",3400.0,3,1900000.0,4,207, Belvedere, Belo Horizonte ,-19.9726191,-43.9383825
Rua São Joaquim ,600.0,1,350000.0,3,104, Sagrada Família, Belo Horizonte ,-19.8976312,-43.9209084
Rua Herval ,2140.0,3,1150000.0,3,214, Serra, Belo Horizonte ,-19.9392933,-43.9189106
Rua Campanário ,260.0,3,780000.0,4,260, Santa Inês, Belo Horizonte ,-19.8873609,-43.9075447
"Avenida Bias Fortes, 1801 ",450.0,1,270000.0,2,70, Lourdes, Belo Horizonte ,-19.9320955,-43.9393472
"Rua Antônio Ferreira de Barros, 461 ",1.0,2,222000.0,2,59, Céu Azul, Belo Horizonte ,-19.8286929,-43.9959596
"Rua dos Timbiras, 261 ",100.0,2,850000.0,3,85, Funcionários, Belo Horizonte ,-19.9302789,-43.9251047
Avenida do Contorno ,,--,300000.0,--,45, Funcionários, Belo Horizonte ,-19.9156428,-43.9453796
Rua Rio de Janeiro ,500.0,--,345000.0,2,67, Lourdes, Belo Horizonte ,-19.9150685,-43.9375314
"Rua Ceará, 1883 ",1870.0,3,1750000.0,4,193, Savassi, Belo Horizonte ,-19.921286,-43.9253997
Rua Madre Beatriz ,1.0,1,210000.0,2,46, Planalto, Belo Horizonte ,-19.8416634,-43.944294
"Rua Plutão, 64 ",,--,535000.0,--,396, Santa Lúcia, Belo Horizonte ,-19.9666177,-43.9444697
Rua Pium,475.0,1,470000.0,1,54,I, 1122 ,-19.9514868,-43.9301243
Rua Gustavo da Silveira ,,3,600000.0,5,277, Sagrada Família, Belo Horizonte ,-19.8868514,-43.9128283
Rua Martim Francisco ,750.0,2,950000.0,4,150, Gutierrez, Belo Horizonte ,-19.9388518,-43.9592489
"Rua Mucuri, 231 ",400.0,2,672000.0,3,78, Floresta, Belo Horizonte ,-19.9187008,-43.9268711
"Rua Dirceu Duarte Braga, 377 ",,1,169500.0,2,43, Trevo, Belo Horizonte ,-19.8333674,-44.0132479
"Rua Cubatão, 185 ",,1,480000.0,3,75, Renascença, Belo Horizonte ,-19.8875816,-43.9422956
Rua Guilherme de Almeida ,1000.0,2,585000.0,3,100, Santo Antônio, Belo Horizonte ,-19.9482786,-43.9476553
Rua Cardeal Stepinac ,580.0,3,1230000.0,3,204, Cidade Nova, Belo Horizonte ,-19.8852186,-43.9266104
Rua Ministro Oliveira Salazar ,,2,315000.0,3,75, Santa Mônica, Belo Horizonte ,-19.8175291,-43.9740618
Avenida Carandaí ,1490.0,3,1800000.0,3,124, Funcionários, Belo Horizonte ,-19.9282667,-43.9283209
Avenida Senador José Augusto ,1593.0,3,1400000.0,4,126, Buritis, Belo Horizonte ,-19.9812868,-43.978411
Rua Doutor Álvaro Camargos ,340.0,1,160000.0,2,50, São João Batista, Belo Horizonte ,-19.8285373,-43.9625532
"Rua da Gameleira, 22 ",,2,439000.0,3,83, Santa Branca, Belo Horizonte ,-19.8318091,-43.9703066
Rua Psi ,,4,570000.0,3,178, Caiçaras, Belo Horizonte ,-19.8985783,-43.9680708
"Rua Ouro Preto, 1274 ",880.0,3,2480000.0,4,133, Santo Agostinho, Belo Horizonte ,-19.9190479,-43.949625
"Rua Professora Bartira Mourão, 307 ",430.0,2,590000.0,3,150, Buritis, Belo Horizonte ,-19.9691439,-43.9679544
Rua Emídio Germano ,,1,310000.0,2,107, Boa Vista, Belo Horizonte ,-19.8940183,-43.9088305
"Rua Tenente Anastácio de Moura, 221 ",1964.0,3,1250000.0,5,155, Santa Efigênia, Belo Horizonte ,-19.9291188,-43.9177972
Rua Francisco Bicalho ,500.0,2,650000.0,3,89, Padre Eustáquio, Belo Horizonte ,-19.9037316,-43.9774067
"Rua dos Caetés, 745 ",298.0,--,360000.0,1,39, Centro, Belo Horizonte ,-19.915688,-43.9419734
"Avenida Silva Lobo, 1 ",236.0,1,330000.0,3,97, Alto Barroca, Belo Horizonte ,-19.9290947,-43.9716769
"Rua Coqueiro, 480 ",220.0,8,280000.0,3,85, Cachoeirinha, Belo Horizonte ,-19.7458117,-43.9631177
Rua Laura Brito Farias ,,1,330000.0,2,111, Heliópolis, Belo Horizonte ,-19.8410324,-43.939367
"Rua Paraíba, 1041 ",1254.0,2,1400000.0,3,92, Savassi, Belo Horizonte ,-19.9262855,-43.9309181
Rua Doutor João Miranda ,330.0,2,451000.0,3,96, Dona Clara, Belo Horizonte ,-19.8611329,-43.9367472
Rua Alagoas ,1.0,2,1100000.0,2,102, Savassi, Belo Horizonte ,-19.9314695,-43.9350021
"Rua Tomé de Souza, 0 ",1440.0,2,1700000.0,4,209, Savassi, Belo Horizonte ,-19.9388244,-43.9274451
Rua Pium,800.0,5,6500.0,4,547,,Belo Horizonte,-19.9514868,-43.9301243
Rua José Alves de Souza ,,2,335000.0,3,118, Santa Terezinha, Belo Horizonte ,-19.8719206,-44.0112587
Rua Desembargador José Burnier ,392.0,2,450000.0,2,125, Castelo, Belo Horizonte ,-19.8905883,-43.9979285
Rua Califórnia ,1520.0,3,1490000.0,4,178, Sion, Belo Horizonte ,-19.9530435,-43.9341217
"Rua São Paulo, 2386 ",4800.0,4,5000000.0,4,334, Lourdes, Belo Horizonte ,-19.914782,-43.9388011
Rua Doutor Helvécio Arantes ,650.0,2,780000.0,2,170, Luxemburgo, Belo Horizonte ,-19.9496535,-43.9574198
Rua Antônio de Sá ,100.0,1,250000.0,2,70, Santa Mônica, Belo Horizonte ,-19.8255979,-43.97435
Rua Leopoldina ,731.0,1,1750.0,3,100, Santo Antônio, Belo Horizonte ,-19.9475349,-43.9422533
"Rua Herval, 150 ",1635.0,2,3000.0,4,150, Serra, Belo Horizonte ,-19.9392933,-43.9189106
Rua Iracy Manata ,600.0,2,450000.0,3,89, Buritis, Belo Horizonte ,-19.9671697,-43.9701124
Rua Turquesa ,600.0,4,560000.0,3,196, Prado, Belo Horizonte ,-19.9274805,-43.969993
"Rua Francisco Campos, 410 ",1.0,4,960000.0,3,180, Trevo, Belo Horizonte ,-19.8368713,-44.0105466
"Rua Antônio de Albuquerque, 357 ",,2,1600000.0,--,70, Savassi, Belo Horizonte ,-19.936584,-43.9421163
"Rua Oriente, 403 ",,2,1350000.0,4,192, Serra, Belo Horizonte ,-19.9441127,-43.9187317
Rua Tomé de Souza ,3400.0,4,3990000.0,4,480, Savassi, Belo Horizonte ,-19.9388244,-43.9274451
Rua Antônio de Albuquerque ,275.0,2,800000.0,2,52, Savassi, Belo Horizonte ,-19.936584,-43.9421163
Rua Doutor Sylvio Menicucci ,385.0,2,650000.0,2,128, Castelo, Belo Horizonte ,-19.8851177,-44.0059034
Rua Ester Augusta Ribeiro ,350.0,1,167000.0,2,48, Camargos, Belo Horizonte ,-19.9380101,-44.0167748
Rua Célio de Castro ,,3,998000.0,5,330, Floresta, Belo Horizonte ,-19.9123936,-43.9340522
Rua Tomaz Gonzaga ,2700.0,4,2499000.0,4,201, Lourdes, Belo Horizonte ,-19.9329322,-43.9411068
"Rua Aldebaram, 280 ",,5,2850000.0,4,538, Comiteco, Belo Horizonte ,-19.9564148,-43.9275517
Rua Castelo de Edimburgo ,750.0,4,850000.0,4,166, Castelo, Belo Horizonte ,-19.8783474,-44.000258
"Rua Rio de Janeiro, 1165 ",450.0,--,270000.0,2,65, Centro, Belo Horizonte ,-19.9150685,-43.9375314
Rua Cacuera ,,2,1100000.0,4,384, Jaraguá, Belo Horizonte ,-19.8580271,-43.9541817
Rua Córrego da Mata ,430.0,1,320000.0,2,55, Sagrada Família, Belo Horizonte ,-19.9109591,-43.9187938
Avenida Portugal ,1800.0,2,1290000.0,4,260, Jardim Atlântico, Belo Horizonte ,-19.8425871,-43.9698185
Avenida Artur Bernardes ,,1,620000.0,3,146, Vila Paris, Belo Horizonte ,-19.9545898,-43.9465102
Rua Abeilard Pereira ,,2,435000.0,2,15, Santa Amélia, Belo Horizonte ,-19.8445112,-43.9813741
Rua Passa Tempo ,1200.0,2,1100000.0,3,110, Carmo, Belo Horizonte ,-19.9458256,-43.9307955
"Rua Paulo Piedade Campos, 730 ",,1,450000.0,4,120, Estoril, Belo Horizonte ,-19.9616947,-43.9652056
"Rua José Carvalho Monteiro, 22 ",200.0,1,266900.0,2,58, Fernão Dias, Belo Horizonte ,-19.8691406,-43.9182656
Rua São Sebastião do Maranhão ,30.0,1,180000.0,2,54, Jardim Leblon, Belo Horizonte ,-19.8232454,-43.9891017
Rua Lírios,,4,330000.0,2,70,,Belo Horizonte,-19.9794184,-44.1714651
Rua José Hemetério Andrade ,1800.0,3,1250000.0,4,148, Buritis, Belo Horizonte ,-19.9786425,-43.9631117
Rua Ximbe ,,--,600000.0,--,1000, Braúnas, Belo Horizonte ,-19.8506097,-44.008796
"Rua Mondovi, 620 ",,10,1380000.0,5,550, Bandeirantes, Belo Horizonte ,-19.8542526,-43.9928844
Rua dos Inconfidentes ,1.0,2,1101764.0,3,82, Savassi, Belo Horizonte ,-19.937775,-43.9268338
Rua Monte Simplon ,750.0,2,535000.0,3,82, Nova Suíssa, Belo Horizonte ,-19.9295351,-43.9824004
"Rua Marquês de Paranaguá, 309 ",1250.0,4,1250000.0,4,170, Santo Antônio, Belo Horizonte ,-19.9393195,-43.9471327
Rua Rio de Janeiro ,1180.0,3,1440000.0,2,96, Lourdes, Belo Horizonte ,-19.9150685,-43.9375314
Rua Alvarenga Peixoto ,1324.0,2,1100000.0,3,102, Lourdes, Belo Horizonte ,-19.929576,-43.9494157
"Rua Custódio Carreira, 32 ",310.0,2,480000.0,3,96, Prado, Belo Horizonte ,-19.926971,-43.9715473
"Rua Marcos Diniz Siqueira, 48 ",400.0,2,800000.0,4,130, Santa Rosa, Belo Horizonte ,-19.8616398,-43.9452112
Rua Espírito Santo ,1800.0,3,2600000.0,4,325, Lourdes, Belo Horizonte ,-18.8647762,-41.1217768
Rua dos Aimorés ,,1,398000.0,--,82, Funcionários, Belo Horizonte ,-19.9245137,-43.9538877
Rua Flávio Marques Lisboa ,,3,2500000.0,3,176, Barreiro, Belo Horizonte ,-19.9763376,-44.0146811
Rua Luiz Cosme ,,6,1000000.0,4,300, Havaí, Belo Horizonte ,-19.9640512,-43.9717642
Rua Dona Cidinha Stussi ,,4,980000.0,4,360, Santa Amélia, Belo Horizonte ,-19.8408076,-43.9848631
"Rua São Paulo, 1031 ",320.0,--,210000.0,2,56, Centro, Belo Horizonte ,-19.914782,-43.9388011
Rua Antônio de Albuquerque ,,2,1600000.0,--,70, Savassi, Belo Horizonte ,-19.936584,-43.9421163
Rua Professora Bartira Mourão ,800.0,3,1450000.0,4,180, Buritis, Belo Horizonte ,-19.9691439,-43.9679544
Avenida Mem de Sá ,350.0,2,1500.0,3,105, Santa Efigênia, Belo Horizonte ,-19.9178011,-43.9108554
"Rua Constantino Siqueira dos Santos, 20 ",9850.0,2,985000.0,3,120, Castelo, Belo Horizonte ,-19.8816749,-43.9898512
Rua Itajubá ,330.0,2,500000.0,3,92, Sagrada Família, Belo Horizonte ,-19.9111658,-43.9295436
Rua Cachoeira de Minas ,336.0,1,276800.0,1,36, Gutierrez, Belo Horizonte ,-19.9465331,-43.9600379
"Rua Rio Verde, 532 ",1881.0,3,1685000.0,4,165, Carmo, Belo Horizonte ,-19.9469939,-43.9311283
Rua Alcântara ,720.0,3,730000.0,4,113, Nova Granada, Belo Horizonte ,-19.9374107,-43.9712444
"Rua Rio Casca, 266 ",440.0,1,349000.0,3,78, Carlos Prates, Belo Horizonte ,-19.91614,-43.9569683
Rua Rio Grande do Sul ,1650.0,2,890000.0,3,90, Santo Agostinho, Belo Horizonte ,-19.9227162,-43.946463
Rua Desembargador Penna ,,5,2990000.0,4,450, Belvedere, Belo Horizonte ,-19.9616905,-43.9394295
Rua Ulisses Marcondes Escobar ,550.0,2,495000.0,3,145, Buritis, Belo Horizonte ,-19.970196,-43.9695053
Rua Xapuri ,750.0,2,798000.0,3,132, Grajaú, Belo Horizonte ,-19.9437549,-43.9704569
Rua dos Guajajaras ,580.0,1,450000.0,2,75, Centro, Belo Horizonte ,-19.9261909,-43.93638
Rua Cônsul Walter ,360.0,2,350000.0,2,50, Buritis, Belo Horizonte ,-19.9745736,-43.9696865
"Rua Conde de Linhares, 112 ",,4,14000.0,4,620, Cidade Jardim, Belo Horizonte ,-19.9429539,-43.9497666
"Rua Engenheiro Zoroastro Torres, 384 ",960.0,1,420000.0,3,95, Santo Antônio, Belo Horizonte ,-19.9501613,-43.9450108
Rua Wilson Modesto Ribeiro ,420.0,1,265000.0,2,60, Ipiranga, Belo Horizonte ,-19.8777404,-43.9306121
Rua do Uruguai ,400.0,2,580000.0,4,140, Sion, Belo Horizonte ,-19.9528849,-43.9312084
"Rua Rodrigo Otávio Coutinho, 0 ",2250.0,4,2280000.0,4,183, Belvedere, Belo Horizonte ,-19.9767965,-43.9422612
"Rua José Hemetério Andrade, 0 ",830.0,3,1080000.0,4,148, Buritis, Belo Horizonte ,-19.9786425,-43.9631117
"Rua José Oscar Barreira, 261 ",,4,1000000.0,4,129, Itapoã, Belo Horizonte ,-19.8384733,-43.9556921
Rua Deputado Álvaro Sales ,654.0,2,780000.0,4,145, Santo Antônio, Belo Horizonte ,-19.9490145,-43.9462098
"Rua Sílvio Menicucci, 55 ",390.0,2,320000.0,3,65, Buritis, Belo Horizonte ,-19.97946,-43.978228
Rua Doutor Sette Câmara ,530.0,2,595000.0,2,75, Luxemburgo, Belo Horizonte ,-19.943202,-43.9554971
"Rua Engenheiro Alberto Pontes, 489 ",1250.0,3,1600000.0,4,141, Buritis, Belo Horizonte ,-19.9689271,-43.9668895
"Rua Professor Kalman Sibalszky, 145 ",975.0,3,1500000.0,3,463, Garças, Belo Horizonte ,-19.8408604,-43.9993629
Rua Montes Claros ,,3,2050000.0,4,162, Sion, Belo Horizonte ,-19.9434371,-43.9342094
Avenida Barbacena ,1050.0,2,1599000.0,4,206, Santo Agostinho, Belo Horizonte ,-19.9262729,-43.9517869
Rua Doutor Juvenal dos Santos ,600.0,1,515000.0,4,130, Luxemburgo, Belo Horizonte ,-19.9508257,-43.9585445
Rua Senhora da Abadia ,10.0,2,450000.0,2,94, Santa Mônica, Belo Horizonte ,-19.8245629,-43.9833378
Rua Shirley Regina das Chagas ,,1,330000.0,2,62, Serrano, Belo Horizonte ,-19.8827174,-44.0070775
Avenida Bias Fortes ,,8,6405157.0,--,485, Lourdes, Belo Horizonte ,-19.9320955,-43.9393472
"Rua Hermilo Alves, 175 ",248.0,2,799000.0,3,128, Santa Tereza, Belo Horizonte ,-19.915185,-43.9223514
"Rua Monte Simplon, 417 ",145.0,1,319000.0,2,52, Nova Suíssa, Belo Horizonte ,-19.9295351,-43.9824004
"Rua Castelo de Abrantes, 55 ",500.0,3,590000.0,2,119, Castelo, Belo Horizonte ,-19.8831833,-43.9967021
Rua Professora Bartira Mourão ,635.0,3,930000.0,4,190, Buritis, Belo Horizonte ,-19.9691439,-43.9679544
Rua Maciel de Paiva ,,3,850000.0,3,145, Santa Mônica, Belo Horizonte ,-19.8286105,-43.9754778
Rua Júlio Vidal ,2700.0,5,2800000.0,4,233, Anchieta, Belo Horizonte ,-19.9524789,-43.9248667
"Rua Visconde de Taunay, 912 ",215.0,2,450000.0,3,91, Santa Mônica, Belo Horizonte ,-19.9281876,-43.9199884
Rua Alírio Elias Ferreira ,,3,1070000.0,4,164, Cidade Nova, Belo Horizonte ,-19.8841068,-43.9235072
Rua Antônio Alves ,,1,215000.0,2,47, Diamante, Belo Horizonte ,-19.9876132,-44.030916
"Rua Major Lopes, 750 ",1.0,2,839000.0,2,88, São Pedro, Belo Horizonte ,-19.9475495,-43.9353399
Rua São Domingos do Prata ,,6,5900000.0,4,344, São Pedro, Belo Horizonte ,-19.9450923,-43.9374086
"Rua dos Guajajaras, 1976 ",,1,515000.0,2,60, Barro Preto, Belo Horizonte ,-19.9261909,-43.93638
Rua Montese ,1.0,1,273000.0,2,53, Santa Branca, Belo Horizonte ,-19.8351695,-43.9668719
"Rua Doutor Juvenal dos Santos, 324 ",900.0,2,895000.0,3,120, Luxemburgo, Belo Horizonte ,-19.9508257,-43.9585445
"Rua Líbero Leone, 130 ",750.0,2,550000.0,3,95, Buritis, Belo Horizonte ,-19.9743233,-43.963421
"Rua Professor Miguel de Souza, 158 ",600.0,4,1300000.0,5,300, Buritis, Belo Horizonte ,-19.9777011,-43.9686523
Rua Buenos Aires ,,9,5013020.0,--,652, Carmo, Belo Horizonte ,-19.9499624,-43.9360413
Rua Gama Cerqueira ,300.0,2,370000.0,3,90, Jardim América, Belo Horizonte ,-19.9454281,-43.9709884
"Rua Manaus, 762 ",,1,389000.0,1,42, Santa Efigênia, Belo Horizonte ,-19.9235979,-43.9205255
"Rua Via Láctea, 372 ",2673.0,4,3500000.0,4,370, Santa Lúcia, Belo Horizonte ,-19.9599038,-43.9467753
"Rua Cláudio Manoel, 197 ",1400.0,3,1450000.0,4,130, Funcionários, Belo Horizonte ,-19.9335821,-43.9329926
Rua Oscar Trompowsky ,700.0,2,410000.0,3,120, Grajaú, Belo Horizonte ,-19.9364995,-43.9613222
"Rua Domingos Viotti, 000 ",,4,980000.0,4,300, Santa Amélia, Belo Horizonte ,-19.841271,-43.9853373
"Rua Professor Moraes, 600 ",,--,389000.0,1,28, Savassi, Belo Horizonte ,-19.8624858,-43.9614177
Avenida dos Engenheiros ,240.0,1,230000.0,2,52, Castelo, Belo Horizonte ,-19.891472,-43.9987341
"Rua Sergipe, 400 ",,3,1270000.0,4,180, Funcionários, Belo Horizonte ,-19.9276923,-43.9354354
Rua Áurea ,,1,200000.0,2,55, Piratininga Venda Nova, Belo Horizonte ,-19.8141893,-43.9917331
"Rua Júlio de Castilho, 133 ",329.0,1,320000.0,3,70, Betânia, Belo Horizonte ,-19.9610731,-43.9808977
"Rua Sílvio de Oliveira Martins, 200 ",450.0,1,395000.0,4,90, Buritis, Belo Horizonte ,-19.9738876,-43.9697931
"Rua Sílvio Menicucci, 143 ",1050.0,2,800000.0,4,108, Buritis, Belo Horizonte ,-19.97946,-43.978228
Rua Tito Botelho Martins ,700.0,1,680000.0,3,120, Santa Lúcia, Belo Horizonte ,-19.9586273,-43.9490459
Rua Godofredo de Araújo ,275.0,2,489000.0,3,88, Sagrada Família, Belo Horizonte ,-19.8989709,-43.9247227
Rua Benjamim Dias ,,2,660000.0,3,104, Barreiro, Belo Horizonte ,-20.3810929,-43.5107869
Rua Castro Alves ,10.0,1,199000.0,2,50, Copacabana, Belo Horizonte ,-19.84379,-43.8848314
Rua Santa Rita Durão ,1500.0,2,1390000.0,4,150, Funcionários, Belo Horizonte ,-19.9344756,-43.9346452
Rua São Joaquim ,230.0,2,360000.0,3,86, Sagrada Família, Belo Horizonte ,-19.8976312,-43.9209084
Rua Barão de Aiuruoca ,150.0,1,220000.0,2,53, João Pinheiro, Belo Horizonte ,-19.9243791,-44.0014775
"Rua Eugênio Sales, 0 ",,4,1600000.0,4,245, Copacabana, Belo Horizonte ,-19.839863,-43.9888542
"Rua Assunção, 290 ",397.0,1,435000.0,3,116, Sion, Belo Horizonte ,-19.9539031,-43.9378663
"Rua São Luiz, 761 ",250.0,1,240000.0,3,56, Sagrada Família, Belo Horizonte ,-19.9001845,-43.9172664
"Rua Rio de Janeiro, 2573 ",5000.0,6,8000000.0,4,350, Lourdes, Belo Horizonte ,-19.9150685,-43.9375314
Avenida Protásio de Oliveira Penna ,350.0,2,390000.0,3,100, Buritis, Belo Horizonte ,-19.9785904,-43.9686159
Rua Maria Heilbuth Surette ,530.0,1,330000.0,3,90, Buritis, Belo Horizonte ,-19.9671931,-43.9714445
"Rua Piauí, 1155 ",780.0,2,1060000.0,4,160, Funcionários, Belo Horizonte ,-19.9385064,-43.9287698
"Rua dos Guajajaras, 1976 ",,1,414500.0,1,91, Barro Preto, Belo Horizonte ,-19.9261909,-43.93638
Rua Ester Augusta Ribeiro ,380.0,2,568000.0,3,140, Camargos, Belo Horizonte ,-19.9380101,-44.0167748
"Rua Demétrio Ribeiro, 75 ",434.0,1,300000.0,3,67, Saudade, Belo Horizonte ,-19.9163944,-43.8936505
"Rua Rio de Janeiro, 1270 ",458.0,1,549000.0,1,60, Lourdes, Belo Horizonte ,-19.9150685,-43.9375314
Rua Professor Galba Veloso ,250.0,2,740000.0,4,170, Santa Tereza, Belo Horizonte ,-19.9128102,-43.9195994
Avenida Augusto de Lima ,,--,252025.0,--,30, Barro Preto, Belo Horizonte ,-19.9230616,-43.9441556
Rua Alvarenga Peixoto ,2420.0,3,2599000.0,4,300, Lourdes, Belo Horizonte ,-19.929576,-43.9494157
Rua Japurá ,,6,1050000.0,3,317, Renascença, Belo Horizonte ,-19.8894575,-43.9361243
"Rua Tito Guimarães, 128 ",1065.0,4,1100000.0,4,143, Buritis, Belo Horizonte ,-19.9683095,-43.9689232
"Rua Olavo Bernardes, 0 ",200.0,1,220000.0,2,65, Havaí, Belo Horizonte ,-19.9591888,-43.9711802
Avenida Portugal ,,2,559999.0,2,140, Jardim Atlântico, Belo Horizonte ,-19.8425871,-43.9698185
"Avenida Protásio de Oliveira Penna, 275 ",474.0,1,350000.0,2,60, Buritis, Belo Horizonte ,-19.9785904,-43.9686159
"Rua Frei Luiz de Souza, 135 ",145.0,1,305000.0,2,56, João Pinheiro, Belo Horizonte ,-19.9295132,-44.0003802
"Rua Antônio Torres, 442 ",,5,1390000.0,5,313, Sagrada Família, Belo Horizonte ,-19.9080039,-43.9240066
Rua Ademar Martins Vieira ,300.0,2,700000.0,3,170, Ouro Preto, Belo Horizonte ,-19.8775705,-43.9835245
Rua Deputado Álvaro Sales ,605.0,2,998000.0,3,220, Santo Antônio, Belo Horizonte ,-19.9490145,-43.9462098
Rua Stela de Souza ,500.0,2,535000.0,3,84, Sagrada Família, Belo Horizonte ,-19.9038754,-43.9301764
Rua Andesita ,,4,900000.0,4,180, Cidade Nova, Belo Horizonte ,-19.8837276,-43.9195369
Rua Itaparica ,250.0,2,865250.0,4,103, Serra, Belo Horizonte ,-19.9358076,-43.9195007
Rua Desembargador José Satyro ,330.0,2,1350000.0,4,208, Castelo, Belo Horizonte ,-19.8888536,-43.995997
"Rua Deputado Bernardino de Sena Figueiredo, 1201 ",,3,1600000.0,3,140, Cidade Nova, Belo Horizonte ,-19.8840778,-43.9282818
Rua Alvarenga Peixoto ,842.0,2,2490000.0,3,250, Santo Agostinho, Belo Horizonte ,-19.929576,-43.9494157
Rua dos Aimorés ,,2,990000.0,3,87, Lourdes, Belo Horizonte ,-19.9245137,-43.9538877
"Rua Professor Baroni, 135 ",1601.0,3,1200000.0,4,280, Gutierrez, Belo Horizonte ,-19.9430178,-43.9567038
"Rua Capitão Bragança, 293 ",330.0,2,370000.0,2,48, Santa Tereza, Belo Horizonte ,-19.9106807,-43.9132442
"Rua Ceará, 1695 ",1692.0,2,1440000.0,4,133, Funcionários, Belo Horizonte ,-19.921286,-43.9253997
Rua dos Timbiras ,720.0,1,460000.0,3,83, Lourdes, Belo Horizonte ,-19.9302789,-43.9251047
Rua Carvalhais de Paiva ,500.0,1,290000.0,3,78, Cidade Nova, Belo Horizonte ,-19.8857176,-43.9244454
Rua Adenir Pereira de Souza ,300.0,2,489000.0,3,152, Serrano, Belo Horizonte ,-19.8837519,-44.0141606
"Rua Izabel Alves Martins, 365 ",,2,495000.0,3,110, Serrano, Belo Horizonte ,-19.882997,-44.0112702
Rua Panamá ,400.0,2,949000.0,4,164, Sion, Belo Horizonte ,-19.9550843,-43.9398499
Rua João Antônio Azeredo ,4400.0,4,3500000.0,4,347, Belvedere, Belo Horizonte ,-19.9709536,-43.9409204
Rua Euclides da Cunha ,1250.0,2,790000.0,4,106, Prado, Belo Horizonte ,-19.9292917,-43.9596992
Rua Iraí ,450.0,2,3500.0,3,85, Cidade Jardim, Belo Horizonte ,-19.9463585,-43.9507721
"Rua Dom Prudêncio Gomes, 178 ",420.0,2,690000.0,4,208, Coração Eucarístico, Belo Horizonte ,-19.9226189,-43.9855699
Avenida Bernardo Monteiro ,1388.0,3,2450000.0,3,206, Funcionários, Belo Horizonte ,-19.9281404,-43.9287901
"Rua Joaquim Linhares, 207 ",1320.0,4,3250000.0,4,197, Anchieta, Belo Horizonte ,-19.9500206,-43.9260666
Rua Vereador Geraldo Pereira ,,2,465000.0,2,140, Padre Eustáquio, Belo Horizonte ,-19.9218017,-43.9819818
"Avenida Afonso Pena, 111 ",1800.0,4,1200000.0,4,204, Funcionários, Belo Horizonte ,-19.9469331,-43.9212512
"Rua Alberto Bressane, 464 ",,2,890000.0,5,502, São Lucas, Belo Horizonte ,-19.9300689,-43.9139527
Rua Tamarix ,,1,299000.0,2,110, Juliana, Belo Horizonte ,-19.81556,-43.9431205
Rua Professor Sylvio Barbosa ,,6,5900000.0,4,700, Belvedere, Belo Horizonte ,-19.9698085,-43.9381305
Rua Santa Rita Durão ,2860.0,3,3300000.0,4,373, Funcionários, Belo Horizonte ,-19.9344756,-43.9346452
"Rua do Ouro, 1100 ",800.0,1,410000.0,2,85, Serra, Belo Horizonte ,-19.947074,-43.9186245
"Rua Paulo Brandao, 236 ",430.0,2,430000.0,3,78, Santa Efigênia, Belo Horizonte ,-19.9278919,-43.9126037
"Rua Santo Agostinho, 668 ",,2,1700000.0,5,326, Sagrada Família, Belo Horizonte ,-19.8972488,-43.9189199
Rua Felipe dos Santos ,1780.0,3,2250000.0,4,169, Santo Agostinho, Belo Horizonte ,-19.9342841,-43.9462997
Rua Professor Sálvio Nunes ,,8,7250000.0,5,895, Mangabeiras, Belo Horizonte ,-19.9564585,-43.9161332
Rua Geraldo Magela de Almeida ,290.0,2,269000.0,3,67, Manacás, Belo Horizonte ,-19.894861,-43.9981918
Rua Tenente Anastácio de Moura ,190.0,2,590000.0,2,65, Santa Efigênia, Belo Horizonte ,-19.9291188,-43.9177972
"Rua Engenheiro Amaro Lanari, 37 ",1900.0,3,1850000.0,4,170, Anchieta, Belo Horizonte ,-19.9510325,-43.9294902
"Rua Luiz Cosme, 25 ",,4,600000.0,4,450, Estrela Dalva, Belo Horizonte ,-19.9640512,-43.9717642
Rua Paulo Piedade Campos ,400.0,1,340000.0,3,80, Estoril, Belo Horizonte ,-19.9616947,-43.9652056
Rua Itaí ,250.0,2,350000.0,3,98, Santa Efigênia, Belo Horizonte ,-19.9218382,-43.9101032
Rua São Paulo ,5000.0,4,6900000.0,4,363, Lourdes, Belo Horizonte ,-19.914782,-43.9388011
"Rua Professora Bartira Mourão, 307 ",439.0,2,590000.0,3,155, Buritis, Belo Horizonte ,-19.9691439,-43.9679544
"Rua Alvarenga Peixoto, 1037 ",933.0,2,1590000.0,3,101, Lourdes, Belo Horizonte ,-19.929576,-43.9494157
"Rua Úrsula Paulino, 1321 ",570.0,2,649000.0,3,75, Betânia, Belo Horizonte ,-19.9669908,-43.9920275
"Rua Maria Heilbuth Surette, 410 ",420.0,3,690000.0,4,254, Buritis, Belo Horizonte ,-19.9671931,-43.9714445
Rua Rio Grande do Sul ,1100.0,2,1040000.0,2,120, Santo Agostinho, Belo Horizonte ,-19.9227162,-43.946463
Rua Pedro Sigaud ,500.0,2,495000.0,3,135, Gutierrez, Belo Horizonte ,-19.9387599,-43.9635907
Rua Professor Carlos Pereira da Silva ,,3,5600000.0,6,628, Belvedere, Belo Horizonte ,-19.968435,-43.9420157
Rua Lauro Ferreira ,,2,569000.0,4,155, Buritis, Belo Horizonte ,-19.9692964,-43.9700264
"Rua dos Aeroviários, 184 ",400.0,2,460000.0,3,107, Pampulha, Belo Horizonte ,-19.8586579,-43.9548531
Rua Wander Rocha Vargas ,110.0,--,210000.0,2,55, Minaslandia P Maio, Belo Horizonte ,-19.8501531,-43.9324085
Rua Desembargador Amílcar de Castro ,,--,295000.0,1,32, Buritis, Belo Horizonte ,-19.9683021,-43.95771
"Rua Desembargador José Satyro, 370 ",330.0,2,799000.0,3,98, Castelo, Belo Horizonte ,-19.8888536,-43.995997
"Rua da Bahia, 2547 ",,2,1450000.0,2,105, Savassi, Belo Horizonte ,-19.9151776,-43.9347647
Avenida Teresa Cristina ,,--,11500000.0,--,5388, Betânia, Belo Horizonte ,-19.9299314,-43.9835742
"Rua dos Caetés, 910 ",499.0,--,399000.0,3,118, Centro, Belo Horizonte ,-19.915688,-43.9419734
Rua Luiz de Mello Mattos ,,2,590000.0,5,222, Planalto, Belo Horizonte ,-19.838549,-43.9434289
Rua Engenheiro Albert Scharle ,1600.0,4,3000000.0,4,515, Luxemburgo, Belo Horizonte ,-19.9461223,-43.9549658
Rua Teixeira de Freitas ,145.0,2,520000.0,2,58, Santo Antônio, Belo Horizonte ,-19.9473451,-43.9478337
"Rua General Patton, 110 ",,2,699000.0,3,140, Santa Amélia, Belo Horizonte ,-19.8336462,-43.9791832
Rua Nísio Batista de Oliveira ,420.0,3,445000.0,2,95, São Lucas, Belo Horizonte ,-19.9305865,-43.9131877
Rua Eli Seabra Filho ,750.0,2,760000.0,4,110, Buritis, Belo Horizonte ,-19.9756218,-43.9749864
Rua Manaus ,1450.0,2,750000.0,3,91, Santa Efigênia, Belo Horizonte ,-19.9235979,-43.9205255
Rua Laura Brito Farias ,100.0,1,290000.0,3,82, Heliópolis, Belo Horizonte ,-19.8410324,-43.939367
"Rua Tomé de Souza, 950 ",682.0,2,1232000.0,2,73, Funcionários, Belo Horizonte ,-19.9388244,-43.9274451
"Rua Expedicionário Celso Racioppi, 0 ",600.0,1,450000.0,3,80, Pampulha, Belo Horizonte ,-19.8675795,-43.9842413
Rua Heroína Maria Quitéria ,220.0,2,555000.0,3,141, Alto dos Caiçaras, Belo Horizonte ,-19.8996028,-43.9778398
Rua Sena Madureira ,500.0,4,740000.0,4,185, Ouro Preto, Belo Horizonte ,-19.8740387,-43.9878369
"Avenida Guarapari, 37 ",250.0,1,249900.0,3,77, Itapoã, Belo Horizonte ,-19.8457686,-43.9775604
Rua Professor Aníbal Mattos ,615.0,2,500000.0,3,90, Santo Antônio, Belo Horizonte ,-19.9480862,-43.944339
"Rua Patagônia, 300 ",1138.0,3,1290000.0,4,126, Sion, Belo Horizonte ,-19.9592013,-43.9350687
Rua Raul Pompéia ,950.0,2,900000.0,3,95, São Pedro, Belo Horizonte ,-19.9442016,-43.9377803
Rua Antônio Aleixo ,1911.0,4,1500000.0,4,155, Lourdes, Belo Horizonte ,-19.9328187,-43.9465711
"Alameda dos Jacarandás, 260 ",,--,2500000.0,5,451, São Luíz, Belo Horizonte ,-19.8584604,-43.9670794
Rua Doutor Sylvio Menicucci ,280.0,2,510000.0,2,100, Castelo, Belo Horizonte ,-19.8851177,-44.0059034
Rua Madre Cândida ,2235.0,3,1250000.0,3,180, Vila Paris, Belo Horizonte ,-19.9484394,-43.9511108
"Rua Nicarágua, 120 ",,2,1230000.0,4,135, Sion, Belo Horizonte ,-19.9564572,-43.940152
"Avenida Senador José Augusto, 80 ",430.0,1,360000.0,3,70, Buritis, Belo Horizonte ,-19.9812868,-43.978411
Rua Itapeva ,,1,649000.0,3,190, Concórdia, Belo Horizonte ,-19.9016518,-43.9373272
Rua da Bahia ,,--,6000000.0,--,637, Lourdes, Belo Horizonte ,-19.9151776,-43.9347647
Rua da Bahia ,1200.0,2,1520000.0,4,185, Lourdes, Belo Horizonte ,-19.9151776,-43.9347647
Rua Martinica ,10.0,1,300000.0,3,65, Santa Branca, Belo Horizonte ,-19.8321289,-43.9639884
Avenida Mem de Sá ,360.0,1,340000.0,3,82, Santa Efigênia, Belo Horizonte ,-19.9178011,-43.9108554
"Rua dos Tupis, 457 ",,1,220000.0,--,25, Centro, Belo Horizonte ,-19.9205221,-43.9435645
Rua Fernandes Tourinho ,1650.0,2,1800000.0,3,106, Lourdes, Belo Horizonte ,-19.9393917,-43.9358894
Rua Universo ,10.0,2,400000.0,3,130, Copacabana, Belo Horizonte ,-19.9625737,-43.9514043
Rua Itajubá ,430.0,2,580000.0,2,120, Floresta, Belo Horizonte ,-19.9111658,-43.9295436
Rua Genoveva de Souza ,,2,680000.0,3,85, Sagrada Família, Belo Horizonte ,-19.9067997,-43.9216393
"Rua Santa Rita Durão, 339 ",,--,1800.0,--,120, Funcionários, Belo Horizonte ,-19.9344756,-43.9346452
"Rua Gonçalves Dias, 2565 ",,2,820000.0,2,62, Lourdes, Belo Horizonte ,-19.9311846,-43.9376407
"Rua Albânia, 0 ",,2,299000.0,3,50, Jardim Europa venda Nova, Belo Horizonte ,-19.8017402,-43.9656919
Rua Cônego Pinheiro ,200.0,2,595000.0,3,140, Santa Efigênia, Belo Horizonte ,-19.9166427,-43.9084216
Rua Noé Marques de Oliveira ,100.0,1,160000.0,2,63, Jaqueline, Belo Horizonte ,-19.8007451,-43.944172
"Rua Santa Rita Durão, 700 ",1200.0,3,1590000.0,4,130, Savassi, Belo Horizonte ,-19.9344756,-43.9346452
Rua Levindo Ignácio Ribeiro ,,6,680000.0,3,100, Santa Amélia, Belo Horizonte ,-19.8410077,-43.9762867
Avenida Mem de Sá ,347.0,1,360000.0,4,87, Santa Efigênia, Belo Horizonte ,-19.9178011,-43.9108554
"Rua Araribá, 336 ",310.0,1,95000.0,1,42, São Cristóvão, Belo Horizonte ,-19.9009944,-43.9475307
"Rua Coronel Antônio Pereira da Silva, 128 ",300.0,3,918800.0,2,124, Santa Efigênia, Belo Horizonte ,-19.924068,-43.9173719
Rua Santa Catarina ,1700.0,3,1580000.0,4,178, Lourdes, Belo Horizonte ,-19.9232479,-43.9438549
Rua Visconde de Taunay ,1.0,1,424900.0,2,156, Santa Mônica, Belo Horizonte ,-19.9281876,-43.9199884
Rua Pedro Natalício de Morais ,500.0,2,380000.0,3,90, Buritis, Belo Horizonte ,-19.9785725,-43.9726899
Rua Obi ,,3,4500.0,4,172, Betânia, Belo Horizonte ,-19.9634516,-43.9945422
Rua Roquete Mendonça ,,4,1580000.0,4,422, São José, Belo Horizonte ,-19.8609099,-43.9688852
"Rua Maracá, 418 ",250.0,1,235000.0,2,62, São Geraldo, Belo Horizonte ,-19.9013176,-43.8910372
